category,city,country,created_on,description,email,facebook,fax,houseno,id,lat,lon,name,name_ascii,opening_hours,phone,postcode,promoted_until,src_id,state,street,twitter,updated_on,website
atm,Penzance,GB,1465943680.000000,"One-way Bitcoin ATM located in 'One And All' Pub, 200ft from Penzance train station",contact@cryptodechange.com,cryptodechange,,3,8225.000000,50.122064,-5.532898,One And All,One And All,,,TR18 2TD,,,Cornwall,East Terrace,cryptodechange,1465943680.000000,https://www.cryptodechange.com
default,Helsinki,FI,1397211665.000000,,,,,6,42.000000,60.160534,24.939049,Belle Modeste,,,+358 44 0737 001,00180,,osm_node_310973848,,Ruoholahdenkatu,,1477056243.000000,http://www.bellemodeste.com/
grocery,Oak Bay,CA,1394219130.000000,,,,,2577,15.000000,48.437747,-123.312411,Slaters Meats,,,(250) 592-0823,,,osm_node_280366496,British Columbia,Cadboro Bay Road,,1433782794.000000,http://slatersmeats.com/
default,,CZ,1422120857.000000,,,,,393/55,33.000000,50.065833,14.358897,kaktusy eshop,,,+420607073070,15000,,osm_node_296816989,,Nad zámečkem,,1435163403.000000,http://www.kaktusy.cz/eshop
food,London,GB,1370785480.000000,,,,,90,3.000000,51.549378,-0.059379,Pembury Tavern,,,+44 20 8986 8597,E8 1JH,,osm_node_27466108,,Amhurst Road,,1433782790.000000,http://www.individualpubs.co.uk/pembury/
shopping,,FI,1417878506.000000,,,,,26,4.000000,60.445686,22.281812,Tietokonekauppa,,"Mo-Fr 10:00-18:00, Sa 11:00-15:00",,20700,,osm_node_32928873,,Itäinen Pitkäkatu,,1433782791.000000,http://www.tietokonekauppa.fi/
lodging,,DK,1365921482.000000,,,,,,5.000000,54.837024,11.486206,Bandholm Hotel,,,,,,osm_node_35675363,,,,1433782791.000000,http://bandholmhotel.dk/
default,,US,1386794770.000000,,,,,,8.000000,39.261575,-121.016567,SierraHosts.net,,,,,,osm_node_89910245,California,,,1433782792.000000,http://sierrahosts.net
nightlife,Helsinki,FI,1398852994.000000,,,,,23,7.000000,60.169775,24.927098,Helkan Baari,,,,00100,,osm_node_76615072,,Pohjoinen Rautatiekatu,,1433782792.000000,
default,,US,1389447527.000000,,,,,,10.000000,39.714651,-104.936268,Costa Rica Travel Market LLC,,,1.888.831-1811,,,osm_node_176105687,Colorado,,,1433782793.000000,http://www.costaricatravelmarket.com
attraction,Praha 7,CZ,1419019534.000000,,,,,460/15,9.000000,50.099958,14.429952,Bio Oko,,,+420 233 382 606,17000,,osm_node_144033716,,Františka Křížka,,1433782792.000000,http://www.biooko.net/
shopping,,US,1409879886.000000,,,,,,12.000000,42.362679,-71.086398,MIT Coop,,,617.253.1000,,,osm_node_269794193,Massachusetts,,,1433782793.000000,http://web.mit.edu/thecoop/
default,"Chennai, Tamilnadu",IN,1388228457.000000,,,,,,11.000000,13.052391,80.250756,SurajShkathi,,,+91 9444088258,,,osm_node_247686095,,,,1433782793.000000,http://surajshakthi.com/
food,,DE,1418632929.000000,,,,,,13.000000,52.367957,9.720816,The Harp,,,,,,osm_node_270376208,,,,1433782794.000000,
food,,DK,1402145582.000000,,,,,,14.000000,55.678645,12.578942,The Dubliner,,,,,,osm_node_279471686,,,,1433782794.000000,
default,,US,1385666967.000000,,,,,,6.000000,37.770518,-122.450413,Deborah Hodgson Vamp Couture,,,,,,osm_node_65346059,California,,,1433782791.000000,https://sites.google.com/site/stylinpartygirl
food,Peterborough,GB,1370785039.000000,,,,,5,16.000000,52.562134,-0.245751,Coalheavers Arms,,,+44 1733 565664,PE2 9BH,,osm_node_282343010,,Park Street,,1433782795.000000,http://www.individualpubs.co.uk/coalheavers/
lodging,,ZW,1417043002.000000,,,,,,17.000000,-17.825695,31.046915,Monomatapa Hotel,,,,,,osm_node_282945088,,,,1433782795.000000,
transport,,ES,1424272829.000000,,,,,,18.000000,41.713569,2.830864,E. S. LES ALEGRIES,,Mo 06:00-23:00,,,,osm_node_287008347,,"AVDA LES ALEGRIES, 89-91",,1433782795.000000,http://www.cantaulina.com/
food,Trento,IT,1418985021.000000,,,,,10,19.000000,46.064759,11.150453,Pizzeria OroStube,,,,38123,,osm_node_288938675,,Via Sommarive,,1433782796.000000,http://www.orostube.it/
transport,,NL,1421950763.000000,,,,,,20.000000,52.377461,4.908089,StarBikes Rental,,,,,,osm_node_296044226,,,,1433782796.000000,
default,,CZ,1406348966.000000,,,,,174/24,21.000000,50.085943,14.416932,"Electronic Tour Guide Rental Point, Art Elephants souvenir & gift shop",,,,11000,,osm_node_296447848,,Karlova,,1433782796.000000,https://electronictourguide.com
default,Karlovy Vary,CZ,1387016981.000000,,,,,265/22,22.000000,50.233049,12.880841,Romana Dvořáková,,,+420 777 054 221,36009,,osm_node_296502502,,Anglická,,1433782797.000000,http://www.wellnessis.cz/
default,Praha,CZ,1382458998.000000,,,,,857/45,23.000000,50.076387,14.451979,Locus Workspace - Slezská | Coworkingové centrum,,,+420 732 501 105,13000,,osm_node_296511380,,Slezská,,1433782797.000000,http://www.locusworkspace.cz
default,Praha,CZ,1386581202.000000,,,,,108/51,27.000000,50.081679,14.419151,STARSKY DIGITAL AGENCY,,,+420 774 2222 94,11000,,osm_node_296636646,,Spálená,,1433782799.000000,http://starsky.cz/
default,Praha,CZ,1388703167.000000,,,,,2344/146,28.000000,50.077762,14.462939,GOURMETKAVA.CZ (výdejní místo na vyžádání emailem),,,+420728998243,13000,,osm_node_296698010,,Vinohradská,,1433782799.000000,http://gourmetkava.cz/
default,,CZ,1399892189.000000,,,,,484/63,31.000000,49.614236,17.293279,Salva_Quardia,,,+420739654431,77900,,osm_node_296740143,,Selské nám.,,1433782800.000000,http://salva-quardia.cz/
default,,CZ,1427992618.000000,,,,,822/7,34.000000,50.066920,14.398358,Studio Najbrt,,,,15000,,osm_node_296828886,,U Nikolajky,,1433782801.000000,http://www.najbrt.cz
shopping,,CZ,1386828545.000000,,vendula@jelinkova-designer.cz,,,1808/6,35.000000,50.109279,14.474780,Jeli-design | Interiérový design,,,+420777181221,18000,,osm_node_296843577,,Pivovarnická,,1433782802.000000,http://jeli-design.cz/
shopping,Helsinki,FI,1427135702.000000,,,,,4a,36.000000,60.162314,24.925909,HUG BikeShop,,,,,,osm_node_297640911,,Köydenpunojankatu,,1433782802.000000,
food,,GB,1393702018.000000,,,,,,37.000000,50.715649,-3.526299,The Port Royal,,,,EX2 4DR,,osm_node_299022190,,,,1433782802.000000,http://www.theportroyal.co.uk/
food,Madrid,ES,1415272878.000000,,,,,2,38.000000,40.426292,-3.689559,Hard Rock Café,,Mo-Su 12:00-02:00,+34 91 436 4340,28046,,osm_node_300750922,,Paseo de la Castellana,,1433782803.000000,http://www.hardrock.com/locations/cafes3/cafe.aspx?LocationID=40&MIBEnumID=3
lodging,Madrid,ES,1415269399.000000,,pre@hthoteles.com,,,4,39.000000,40.429232,-3.688155,Petit Palace President Castellana,,,+34 915771951,28001,,osm_node_300751458,,Calle Marqués de Villamagna,,1433782803.000000,http://www.petitpalace.com/hotel-president-castellana-en-madrid/
food,Sint-Stevens-Woluwe,BE,1395080051.000000,,alicehomemade@gmail.com,,,265,40.000000,50.868773,4.454467,Alice Homemade,,11-15,,1932,,osm_node_305362399,,Leuvensesteenweg,,1433782803.000000,
food,Berlin,DE,1365929649.000000,,info@room77.de,,,77,41.000000,52.493019,13.417953,Room 77,,,+49-30-31102260,10967,,osm_node_310268912,,Graefestraße,,1433782804.000000,http://www.room77.de/
food,,GB,1421927553.000000,,,,,,258.000000,51.525577,-0.087614,Nin Com Soup,,,,,,osm_node_1694591554,,,,1433782886.000000,
default,Praha,CZ,1389181307.000000,,customerservice@justicecaps.com,,,95/74,29.000000,50.095073,14.453425,Justiz-Caps,,,+420 774 133 116,18600,,osm_node_296718724,,Pobřežní,,1435163304.000000,http://justicecaps.com/
food,Cambridge,GB,1370786241.000000,,,,,1,1.000000,52.198925,0.139051,Devonshire Arms,,,+44 1223 316610,CB1 2BH,,osm_node_25285250,,Devonshire Road,,1433782789.000000,http://www.individualpubs.co.uk/devonshire/
lodging,Nelson Bay,AU,1412221903.000000,,psml@bigpond.com,,,44,2.000000,-32.718767,152.150097,Port Stephens Motor Lodge,,,+61 2 49813366,2315,,osm_node_25954111,New South Wales,Magnus Street,,1433782790.000000,http://www.portstephensmotorlodge.com.au/
shopping,Logansport,US,1465956215.000000,Computer Repair & IT Services,info@stack-tech.com,StackTech,,1631,8226.000000,40.752564,-86.346627,Stack-Tech Computer Repair,Stack-Tech Computer Repair,,(574) 992-8450,46947,,,Indiana,Smead Street,StackTech,1465956215.000000,http://stack-tech.com
cafe,,US,1399646864.000000,,,,,,3928.000000,37.958075,-122.499287,Nova Rosti,,,,,,osm_node_2845221347,California,,,1433784341.000000,
default,Nea Herakleia,GR,1479749583.000000,"IT Solutions, Web hosting, Software development, Service in Halkidiki & Thessaloniki",info@acss.gr,,,,8865.000000,40.322516,23.045626,Advanced Computing ltd,Advanced Computing ltd,,6973242599 - 2312201102,63080,,,,,,1479749583.000000,http://acss.gr
food,Hannover,DE,1427731152.000000,,,,,22,46.000000,52.367091,9.716873,Härtekrug,,,,30449,,osm_node_322811321,,Falkenstraße,,1433782806.000000,
default,Hannover,DE,1430907077.000000,,,,,50,47.000000,52.370288,9.735029,Identitätsstiftung GmbH,,,,30159,,osm_node_322835095,,Karmarschstraße,,1433782806.000000,
default,,US,1386095442.000000,,,,,,50.000000,39.986389,-83.005556,Columbus Worship Center,,,,,,osm_node_357532277,Ohio,,,1433782807.000000,
atm,Warszawa,PL,1418192330.000000,,,,,47,49.000000,52.231372,21.003226,Bobby Burger,,,,,,osm_node_346403259,,Emilii Plater,,1433782807.000000,
default,,US,1383436754.000000,,,,,71,51.000000,41.404722,-74.325000,Saint John The Evangelist Roman Catholic Church,,,,,,osm_node_357645934,New York,Murray Avenue,,1433782808.000000,http://stjohnsgoshen.com/
default,Baton Rouge,US,1385449366.000000,,,,,10311,52.000000,30.409483,-91.068455,Dezins Interactive,,,225-615-8358,70809,,osm_node_358390476,Louisiana,Jefferson Hwy,,1433782808.000000,http://DezinsInteractive.com
default,Shawnee,US,1385566742.000000,,,,,7825,53.000000,38.985900,-94.860600,Mill Creek Community Church,,,+1 913-441-4444,66227,,osm_node_358643732,Kansas,Gleason Road,,1433782809.000000,http://www.mymillcreek.com/
default,,US,1385055371.000000,,,,,,54.000000,33.608786,-117.711416,Color-Glide ColorGlidePro.com - paint brush replacement  product,,,,,,osm_node_358852045,California,,,1433782809.000000,http://colorglidepro.com
attraction,St. Petersburg,US,1408723158.000000,,,,,,55.000000,27.773935,-82.630599,Saint Petersburg Museum of History,,,,33701,,osm_node_367827524,Florida,2nd Ave NE,,1433782809.000000,
default,San Antonio,US,1397232908.000000,,,,,8746,56.000000,29.524169,-98.568719,Law Office of Michael McLees,,,210-595-9999,78240,,osm_node_368165196,Texas,Wurzbach,,1433782810.000000,
shopping,,US,1409361742.000000,,,,,2103,60.000000,37.794986,-122.423478,Laundry Locker Kiosk,,,,,,osm_node_387251061,California,Van Ness Avenue,,1433782811.000000,https://laundrylocker.com
cafe,Toronto,CA,1403569846.000000,,,,,600,61.000000,43.664800,-79.413004,Snakes & Lattes,,Mo-Su 11:00-02:00,(647) 342 9229,M6G 1K4,,osm_node_387456095,Ontario,Bloor Street West,,1433782812.000000,http://www.snakesandlattes.com/
default,,KR,1410875539.000000,,,,,,58.000000,36.782283,126.457458,제생한의원 (Jesaeng Oriental Medicine Clinic),,,0416698811,,,osm_node_368779860,,,,1433782811.000000,http://goo.gl/wTU6b0
shopping,San Francisco,US,1420665190.000000,,,,,302,65.000000,37.767851,-122.422316,Skunk Funk,,,(415) 829-3298,94103,,osm_node_442258115,California,Valencia Street,,1433782813.000000,http://shopskunkfunk.com
default,San Francisco,US,1420762098.000000,,,,,3233,48.000000,37.788279,-122.446192,Pet Camp Cat Safari,,,(415) 567-0700,94115,,osm_node_332787284,California,Sacramento Street,,1433782807.000000,http://petcamp.com
sports,Milano,IT,1374226786.000000,,,,,6,62.000000,45.475254,9.139410,Yogarte,,,,,,osm_node_399359264,,Via Mariotto Albertinelli,,1433782812.000000,http://yogarte.it
food,,AG,1415731770.000000,,info@Anas.ag,,,,63.000000,17.156511,-61.849559,Ana's on the beach,,Mo-Su 10:00-01:00,+1-268-562-8562,,,osm_node_412322869,,,,1433782812.000000,http://www.Anas.ag/
shopping,San Mateo,US,1420753066.000000,,,,,1212,73.000000,37.555574,-122.318096,Cyclepath,,,(650) 341-0922,94402,,osm_node_454929330,California,S El Camino Real,,1433782817.000000,http://cyclepathsm.com
nightlife,Toronto,CA,1402686557.000000,,,,,379,57.000000,43.656030,-79.398947,Grossman's Tavern,,Mo-Su 11:00-02:00,,,,osm_node_368384751,Ontario,Spadina Avenue,,1433782810.000000,
food,,GB,1390247659.000000,,,,,,67.000000,51.476180,-0.022661,The Birds Nest,,,,,,osm_node_445409811,,,,1433782814.000000,
default,Amsterdam,NL,1387085629.000000,,,,,499,68.000000,52.365546,4.891777,FreeJobz Amsterdam,,,,1017BT,,osm_node_447564211,,Herengracht,,1433782814.000000,http://freejobz.nl/
transport,,IT,1401488003.000000,,,,,,69.000000,46.206582,8.319078,Tamoil,,,,,,osm_node_448941929,,,,1433782815.000000,
shopping,Olomouc,CZ,1424379744.000000,,,,,279/5,70.000000,49.594660,17.242257,Vlasové studio Petra Nowaková,,,,77900,,osm_node_449715694,,Krapkova,,1433782815.000000,https://www.facebook.com/pages/Vlasov%C3%A9-studio-Petra-Nowakov%C3%A1/1498933813716230
default,,CZ,1404836726.000000,,,,,1392/2,71.000000,50.099610,14.371861,AntiRadary.NET s.r.o.,,,,16000,,osm_node_449731332,,Na Sekyrce,,1433782816.000000,http://www.antiradary.net
default,Olomouc,CZ,1415875844.000000,,,,,120/24,72.000000,49.606325,17.281797,Gappa Solutions s.r.o.,,,,77900,,osm_node_449786110,,Chválkovická,,1433782816.000000,http://www.gappa.cz/
default,Charlotte,US,1405452629.000000,,,,,2200,76.000000,35.274346,-80.821511,iTek Graphics,,,704-357-6002,28206,,osm_node_470731239,North Carolina,Interstate North Dr,,1433782818.000000,http://www.itekgraphics.com
food,Amersfoort,NL,1383680703.000000,,,,,71,74.000000,52.160142,5.363606,"snackbar ""De Hoefslag""",,Tu-Su 12:00-23:00,033-88 91 884,3812 VW,,osm_node_457564795,,Violenstraat,,1433782817.000000,http://snackbardehoefslag.nl/
atm,Auckland,NZ,1390252903.000000,,,,,2,75.000000,-36.859909,174.753108,The Dog's Bollix Pub (BTC ATM),,,09 378 1845,,,osm_node_462204266,,Newton Road,,1433782818.000000,https://www.facebook.com/pages/The-Dogs-Bollix/335625706564286
food,Cocoa Beach,US,1401472311.000000,,,,,1275,79.000000,28.333289,-80.611025,Saim Orchid Japanese Restaraunt,,10am-11pm M-F,321-783-4545,32931,,osm_node_477126718,Florida,North Atlantic Avenue,,1433782820.000000,http://siamorchidthaisushi.com/
nightlife,,BE,1428009778.000000,,,,,8,78.000000,51.043584,3.725407,Pi-nuts,,,,9000,,osm_node_474342771,,Graaf Arnulfstraat,,1433782819.000000,
food,,US,1397301102.000000,,,,,3009,82.000000,30.296746,-97.741659,Thai Kitchen,,,(512)474-2575,,,osm_node_534454296,Texas,Guadalupe Street,,1433782821.000000,http://thaikitchentx.com/
default,Middleton Cheney,GB,1416404770.000000,,,,,133,80.000000,52.071719,-1.275953,Mansion Hill Veterinary Practice,,,+441295712110,OX17 2PP,,osm_node_477206722,,Main Road,,1433782820.000000,http://www.mansionhillvets.co.uk
shopping,,US,1429857148.000000,,,,,,84.000000,40.687393,-73.969231,Brooklyn Flea,,"Saturdays & Sundays, 10am-4pm",,,,osm_node_552255010,New York,,,1433782821.000000,
nightlife,Tours,FR,1417187458.000000,,,,,106,83.000000,47.396149,0.691889,Le Gros Bar,,,,37000,,osm_node_549888989,,Rue Colbert,,1433782821.000000,
grocery,Dublin 2,IE,1430919444.000000,,,,,5,85.000000,53.343652,-6.264294,Krust Bakery,,,,,,osm_node_559854617,,George's Street Great South,,1433782822.000000,
shopping,Fitzroy,AU,1384001968.000000,,,,,330,66.000000,-37.797260,144.978844,Polyester Books,,,+61394195223,3065,,osm_node_445206218,Victoria,Brunswick Street,,1433782814.000000,http://polyester.com.au/
food,Hannover,DE,1422368371.000000,,,,,10,44.000000,52.372332,9.707445,Das kleine Museum,,18:00+,05112153979,30451,,osm_node_313120747,,Grotestraße,,1433782805.000000,
default,Chenab Nagar,PK,1483131024.000000,,,,,,9060.000000,31.746799,72.919199,KAMRAN CHATTHA,KAMRAN CHATTHA,,,35460,,,,St-49,,1483131024.000000,
default,Chenab Nagar,PK,1483131033.000000,,,,,,9061.000000,31.752000,72.919478,KAMRAN CHATTHA,KAMRAN CHATTHA,,,35460,,,,College Road,,1483131033.000000,
default,San Mauro Torinese,IT,1412285393.000000,,,,,16,86.000000,45.107565,7.750883,Computel,,,,10099,,osm_node_563683339,,Via Aosta,,1433782822.000000,
default,Simeria,RO,1401431194.000000,,,,,6,88.000000,45.848997,23.013284,Viofarm,,07:00 - 23:00,,335900,,osm_node_564747669,,Piața Unirii,,1433782823.000000,
grocery,,DE,1382533057.000000,,,,,,89.000000,49.869699,8.650097,Grow,,,,,,osm_node_566637465,,,,1433782823.000000,http://growshopda.de/
food,Basel,CH,1393945321.000000,,,,,12,90.000000,47.548987,7.586561,Tacoteca,,,,4051,,osm_node_569316834,,Viaduktstrasse,,1433782824.000000,
attraction,,TW,1383742237.000000,,,,,,91.000000,25.018125,121.574584,Jodie's Kitchen Cooking School,,,,,,osm_node_569950096,,,,1433782824.000000,http://kitchen.j321.com
lodging,Winnipeg,CA,1405578271.000000,,,,,1750,105.000000,49.897371,-97.203883,Sandman Hotel & Suites Winnipeg Airport,,,204 775 7263,R3H 0C7,,osm_node_603401072,Manitoba,Sargeant Avenue,,1433782829.000000,http://www.sandmanhotels.ca/hotels/winnipeg/
default,San Diego,US,1392330055.000000,,,,,4120,95.000000,32.949980,-117.227693,DiegoDev Group,,,,92130,,osm_node_596070949,California,Via Candidiz,,1433782826.000000,
default,Oceanside,US,1386790407.000000,,,,,208,96.000000,33.196725,-117.378883,Ares Armor,,,7606502737,92054,,osm_node_596101157,California,N Freeman St,,1433782826.000000,http://aresarmor.com/
default,Carlsbad,US,1388298618.000000,,,,,2755,97.000000,33.164004,-117.348439,Heritage Senior Care,,,,92008,,osm_node_596152437,California,Jefferson St,,1433782826.000000,
default,San Diego,US,1398989281.000000,,,,,5765,98.000000,32.764340,-117.188709,Invincible Creative,,,,92110,,osm_node_596189128,California,Friars Rd #183,,1433782827.000000,http://www.invinviblecreative.com
default,San Diego,US,1386205120.000000,,spinityourself@gmail.com,,,911,99.000000,32.795984,-117.252954,Villalobos SD,,,+1-310-922-7166,92109,,osm_node_596421840,California,Hornblend St,,1433782827.000000,http://www.villalobossd.com/book-villalobos-now/
default,San Diego,US,1413057081.000000,,,,,1440,101.000000,32.799441,-117.243776,Computer and Ink Store,,,,92109,,osm_node_596671747,California,Garnet Av,,1433782828.000000,
default,San Marcos,US,1386206225.000000,,,,,162,102.000000,33.147134,-117.200314,San Marcos Dental Center,,,,92078,,osm_node_596775978,California,Rancho Santa Fe Rd,,1433782828.000000,http://www.SanMarcosDentalCenter.com
transport,Twin Mountain,US,1384022889.000000,,,,,P.O. Box 308,111.000000,44.274445,-71.540309,Irving,,,603-846-5552,03595,,osm_node_660838616,New Hampshire,130 Route 3 North,,1433782832.000000,
food,,US,1395401212.000000,,,,,1304,124.000000,39.192253,-96.609120,Chens Hunam Chinese Restaurant,,,785-539-8888,,,osm_node_700433709,Kansas,Westloop Place,,1433782836.000000,http://hunamrestaurant.com/
food,Zürich,CH,1389103279.000000,,,,,7,104.000000,47.371233,8.543802,Kafi Schoffel,,,,8001,,osm_node_600465273,,Schoffelgasse,,1433782829.000000,https://www.facebook.com/kafischoffel
lodging,Vancouver,CA,1405584310.000000,,,,,180,107.000000,49.278886,-123.112961,Sandman Hotel Vancouver City Centre,,,604 681 2211,V6B 4P4,,osm_node_638750749,British Columbia,West Georgia Street,,1433782830.000000,http://www.sandmanhotels.ca/hotels/vancouver-city-centre/
food,Köln,DE,1429988771.000000,,,,,46,106.000000,50.936998,6.961164,Oscar Lounge,,,,50667,,osm_node_614215772,,Heumarkt,,1433782830.000000,http://oscarlounge.de/
cafe,Vancouver,CA,1377270448.000000,,,,,900,108.000000,49.280724,-123.122489,Waves Coffee House,,,,V6Z 2M4,,osm_node_638771020,British Columbia,Howe Street,,1433782831.000000,http://wavescoffee.com/
default,Chenab Nagar,PK,1483131048.000000,,,,,,9062.000000,31.758824,72.911410,KAMRAN CHATTHA,KAMRAN CHATTHA,,,35460,,,,Aqsa Road,,1483131048.000000,
food,,US,1397418338.000000,,,,,1906,94.000000,30.549921,-97.853323,Great Wall Express,,,512-528-8892,,,osm_node_588070859,Texas,South Bagdad Road,,1433782825.000000,http://greatwallleander.com/
default,Chenab Nagar,PK,1483131059.000000,,,,,,9063.000000,31.758039,72.917365,KAMRAN CHATTHA,KAMRAN CHATTHA,,,35460,,,,Aqsa Road,,1483131059.000000,
default,Zásada,CZ,1384862630.000000,,,,,348,112.000000,50.697349,15.270206,Royal Bohemian Crystal,,,,46825,,osm_node_664069863,,,,1433782832.000000,http://www.sultancrystal.com/
lodging,London,GB,1394004656.000000,,,,,261-263,113.000000,51.529010,-0.120071,Clink 261,,,+44 (0)20 7713 7789,WC1X 8QT,,osm_node_665074363,,Gray's Inn Road,,1433782832.000000,http://www.clinkhostels.com/
default,Graz,AT,1407761721.000000,,realraum@realraum.at,,,15,114.000000,47.065579,15.450577,realraum,,,+43 780 700 888 524,8010,,osm_node_668061696,,Brockmanngasse,,1433782833.000000,http://www.realraum.at
shopping,,NO,1404740055.000000,,,,,,115.000000,59.444571,8.007551,Camping Dalen,,,,,,osm_node_671863535,,,,1433782833.000000,
default,London,GB,1385968603.000000,,,,,152,116.000000,51.527184,-0.088663,Himalayan People,,,,EC1V 2NX,,osm_node_672847802,,City Road,,1433782833.000000,http://www.himalayanpeople.com/
default,Přepychy,CZ,1418472309.000000,,,,,197,117.000000,50.243320,16.105936,Xcovers.cz,,,+420 733 308 038,51732,,osm_node_673468720,,Přepychy,,1433782834.000000,http://xcovers.cz
food,,SE,1388249810.000000,,,,,,118.000000,59.313525,18.085037,Dionysos,,,,,,osm_node_675127161,,,,1433782834.000000,http://www.dionysos.se/
nightlife,,DK,1426601770.000000,,,,,,119.000000,55.677150,12.569102,Cafè Guldhornene,,,,,,osm_node_687312669,,,,1433782834.000000,
nightlife,København K,DK,1426601770.000000,,,,,18,120.000000,55.677385,12.569457,Heidi's Bier Bar,,,,1456,,osm_node_687313455,,Vestergade,,1433782835.000000,
food,,LA,1402055299.000000,,,,,,121.000000,19.888119,102.140179,Utopia Bar & Restaurant,,08:00-23:30,,,,osm_node_689779359,,,,1433782835.000000,http://utopialuangprabang.com/
default,,CZ,1394311692.000000,,,,,1327/29d,122.000000,49.917435,17.919303,CA Radost,,,,74706,,osm_node_697501282,,Joži Davida,,1433782836.000000,http://www.ca-radost.cz
default,London,GB,1414337601.000000,,,,,32,123.000000,51.517669,-0.134314,CeX,,Mo-Sa 10:00-19:00; Su 10:30-16:30,,W1T 1JJ,,osm_node_699943022,,Rathbone Place,,1433782836.000000,https://uk.webuy.com/stores/store_details.php?branchId=2#.VE0TePmG-ao
default,Chenab Nagar,PK,1483131113.000000,,,,,,9064.000000,31.771375,72.891541,KAMRAN CHATTHA,KAMRAN CHATTHA,,,,,,,Sargodha - Faisalabad Road,,1483131113.000000,
default,Milano,IT,1390325167.000000,,,,,4,125.000000,45.501935,9.137048,Juniorbit Sas - Informatica,,,+39 02 33431871,20156,,osm_node_705704820,,Via Mario Pannunzio,,1433782837.000000,http://juniorbit.it/
food,Årsta,SE,1405180962.000000,,,,,39,127.000000,59.296126,18.053015,Sushibar Satzuma,,Mo-Fr 11:00-21:00;Sa 12:00-21:00,08-722 23 20,12052,,osm_node_715701186,,Årstavägen,,1433782838.000000,https://www.facebook.com/SushibarSatzuma
cafe,,CZ,1389354644.000000,,,cukrarna.alchymista,,,87.000000,50.100887,14.417178,Alchymista,,mo-fr 7:30 - 21:30 ; sa-su 10:30 - 21:30,,,,osm_node_564625834,,,,1435161796.000000,http://www.alchymista.cz
lodging,"Calgary, AB",CA,1405576634.000000,,,,,125,92.000000,51.085109,-114.208511,Sandman Hotel & Suites Calgary West,,,403 288 6033,T3B 3R6,,osm_node_577327558,Alberta,Bowridge Crescent NW,,1433782824.000000,http://www.sandmanhotels.ca/hotels/calgary-west/
default,Farooka,PK,1483131120.000000,,,,,,9065.000000,31.722327,72.848969,KAMRAN CHATTHA,KAMRAN CHATTHA,,,,,,,Sahiwal Road,,1483131120.000000,
default,Cluj-Napoca,RO,1413043777.000000,,,,,6,129.000000,46.771680,23.589837,Chaos Cowork Cluj,,24/7,+40 769 641 101,400105,,osm_node_736620004,,Strada Regele Ferdinand,,1433782838.000000,http://chaoscc.ro/
default,Toronto,CA,1409042966.000000,,,,,389,135.000000,43.693190,-79.342321,Benjamin Sports Inc.,,,,M4J 3S2,,osm_node_803534816,Ontario,Donlands Avenue,,1433782841.000000,http://benjaminsports.com/
default,St. Petersburg,US,1418693041.000000,,,,,277,144.000000,27.771386,-82.636867,Lucky Dill,,,(727) 895-5859,33701,,osm_node_919855102,Florida,Central Ave,,1433782844.000000,http://www.luckydillofstpete.com/
grocery,,GB,1398233116.000000,,,,,261,132.000000,53.367580,-1.497067,J. H. Mann - Fishmonger,,,0114 268 2225,,,osm_node_768161941,,Sharrow Vale Road,,1433782840.000000,http://www.wedeliverlocal.co.uk/jhman-sheffield
cafe,Glasgow,GB,1389704296.000000,,,,,21-23,133.000000,55.831806,-4.279617,The Brooklyn Café,,,+44 141 632 3427,,,osm_node_780587349,,Minard Road,,1433782840.000000,https://www.facebook.com/Brooklyn1931
default,,ES,1432506902.000000,,,,,,134.000000,41.976184,2.819892,Farmàcia Simon Bombi,,,,,,osm_node_796750192,,,,1433782840.000000,
lodging,Kelowna BC,CA,1405579918.000000,,,,,2130,163.000000,49.882441,-119.440302,Sandman Hotel & Suites Kelowna,,,250 860 6409,V1Y 6G8,,osm_node_1014215768,British Columbia,Harvey Ave,,1433782852.000000,http://www.sandmanhotels.ca/hotels/kelowna/
lodging,Utecht,DE,1389222642.000000,,Dieter-Apolony@web.de,,+49(4541)870392,33,136.000000,53.767870,10.768010,Gästehof Apolony,,,+49(38875)22610,19217,,osm_node_828790406,,Dorfstraße,,1433782841.000000,http://www.gaeste-hof-apolony.de/
lodging,Bohdíkov,CZ,1385501721.000000,,,,,ev.18,137.000000,50.018077,16.879687,Chalupa Komňátka,,,,78964,,osm_node_840018870,,,,1433782841.000000,http://www.komnatka.cz
default,Karimpur,PK,1483131135.000000,,,,,,9066.000000,31.825648,73.068008,KAMRAN CHATTHA,KAMRAN CHATTHA,,,,,,,,,1483131135.000000,
food,,FI,1405258104.000000,,,,,12,139.000000,61.499197,23.754780,Vegemesta,,,,,,osm_node_849122931,,Puutarhakatu,,1433782842.000000,http://vegemesta.com
attraction,,GB,1401468698.000000,,,,,,140.000000,54.435821,-2.964236,University of Cumbria Ambleside Campus,,,,,,osm_node_849453606,,,,1433782843.000000,
cafe,,DE,1422638677.000000,,boubin@boubin.info,,,,142.000000,48.577455,13.470415,Burgcafé,,,+49 851 49 33 519,,,osm_node_895520939,,,,1433782843.000000,http://www.cafe-oberhaus.de/
food,Wien,AT,1416232799.000000,,,,,23,143.000000,48.205263,16.374529,Tian Restaurant,,Di-Sa 12:00-24:00;Weinbar Di-Sa 17:00-24:00,+43 1 8904665,1010,,osm_node_902496931,,Himmelpfortgasse,,1433782844.000000,http://www.tian-vienna.com
food,Saint Petersburg,US,1418692590.000000,,,,,400,145.000000,27.777371,-82.631548,400 Beach Seafood,,,(727) 896-2400,,,osm_node_919862218,Florida,Beach Drive Northeast,,1433782845.000000,http://www.400beachseafood.com/
food,Saint Petersburg,US,1408767986.000000,,,,,1320,146.000000,27.770905,-82.652357,Ferg's Sports Bar & Grill,,,(727) 822-4562,33705,,osm_node_925524210,Florida,Central Avenue,,1433782845.000000,http://fergssportsbar.com/
food,Middle River,US,1396080298.000000,,,,,836,154.000000,39.347520,-76.450554,Mama Rosa Rotisserie & Grill,,,443-559-5900,21220,,osm_node_966924775,Maryland,Middle River Road,,1433782848.000000,http://mamarosagrill.com/
attraction,,CZ,1385547188.000000,,,,,371,147.000000,49.933594,14.316534,"Dětské Centrum Hobík (školka, kroužky)",,,,25231,,osm_node_929809743,,Karla Majera,,1433782845.000000,http://www.svchobik.cz
default,,CZ,1385681450.000000,,,,,416,148.000000,49.920823,14.236479,gobit.cz - umožňuje přijímat platby v bitcoinech,,,,25230,,osm_node_929935045,,Ve Škabrdli,,1433782846.000000,http://gobit.cz
default,,SE,1396344165.000000,,,,,4B,149.000000,57.654989,11.901764,Primaleva Massage,,,,,,osm_node_936493437,,Lergöksgatan,,1433782846.000000,
attraction,Amsterdam,NL,1396538879.000000,,,,,52-1,150.000000,52.381976,4.870346,Filmhuis Cavia,,,,,,osm_node_936580930,,Van Hallstraat,,1433782847.000000,http://www.filmhuiscavia.nl/
food,,KG,1375365302.000000,,,,,,151.000000,42.843193,74.590591,Dolce Vita,,,,,,osm_node_944997015,,,,1433782847.000000,
food,,IT,1404213034.000000,,,,,,152.000000,45.976382,8.402771,Lago delle Rose,,,,,,osm_node_946572887,,,,1433782848.000000,http://lagodellerose.it/
shopping,,US,1394677112.000000,,,,,,159.000000,40.907667,-74.551956,Macy's,,,,,,osm_node_983512739,New Jersey,,,1433782851.000000,
default,Ljubljana - Polje,SI,1411512949.000000,,,,,18,155.000000,46.049756,14.593367,"BIRBOX, spletna trgovina",,always open,,1260,,osm_node_968593994,,Papirniški trg,,1433782849.000000,http://www.birbox.si
shopping,Beit Sahour,PS,1398541713.000000,,,,,8,156.000000,31.712552,35.224389,Hawsib Information Technologies,,,,,,osm_node_973503722,,Al-Iskan Street,,1433782849.000000,
food,Venlo,NL,1384007933.000000,,,,,20,157.000000,51.367711,6.151096,Adana Grill,,,077-3967640,5921 HM,,osm_node_979110143,,Pepijnstraat,,1433782850.000000,http://www.adanagrill.nl/
food,Venlo,NL,1383999916.000000,,,,,12,158.000000,51.367470,6.151137,Joseph Grill,,,077 387 5152,5921 HM,,osm_node_979110144,,Pepijnstraat,,1433782850.000000,http://www.josephgrill.nl/
shopping,,US,1394676758.000000,,,,,,160.000000,40.907376,-74.555258,Lord & Taylor,,,,,,osm_node_983512746,New Jersey,,,1433782851.000000,
food,,US,1395115329.000000,,,,,16049,165.000000,28.100050,-82.399558,China City,,,813-979-0406,,,osm_node_1033910278,Florida,Tampa Palms Boulevard West,,1433782853.000000,http://chinacity-tampa.com/
food,,NL,1413379588.000000,,,,,"69,71",161.000000,51.845336,5.868830,De Nieuwe Winkel,,,+31243225093,6511 RW,,osm_node_994555192,,Hertogstraat,,1433782851.000000,http://www.denieuwewinkel.com
food,,RU,1384022274.000000,,,,,,162.000000,55.931762,37.520235,Subway,,,,,,osm_node_1012787341,,,,1433782852.000000,http://subway.ru/
default,City of Ottawa,CA,1398793100.000000,,,,,8,164.000000,45.400173,-75.711595,Sun of A Gun,,,,,,osm_node_1016031172,Ontario,Railway Street,,1433782852.000000,
default,City of Ottawa,CA,1394239136.000000,,,,,541,170.000000,45.426451,-75.693962,http://www.themodernshop.ca/,,,,,,osm_node_1134771353,Ontario,Sussex Drive,,1433782855.000000,
shopping,,US,1397057901.000000,,,,,2943,171.000000,47.664818,-122.295816,Counterbalance Bicycles,,,,98105,,osm_node_1152085626,Washington,NE Blakeley St,,1433782855.000000,http://www.counterbalancebicycles.com/
default,,GB,1417699718.000000,,,,,,166.000000,51.476787,-3.178707,CeX Cardiff,,,,,,osm_node_1035258619,,Cardiff Central Square,,1433782853.000000,
default,,SK,1365876147.000000,,,,,,167.000000,48.144272,17.106547,Progressbar,,,,,,osm_node_1096120193,,,,1433782854.000000,http://www.progressbar.sk
food,,CZ,1429107086.000000,,,,,,168.000000,50.086459,14.405318,U Malířů,,,,,,osm_node_1097310478,,,,1433782854.000000,
nightlife,,CH,1417216944.000000,,,,,3,169.000000,46.518396,6.634068,QWERTZ,,,,1003,,osm_node_1129155319,,Rue de la Grotte,,1433782855.000000,http://www.standardcafe.ch
nightlife,San Diego,US,1402005836.000000,,,,,3811,131.000000,32.747809,-117.129764,Rooted Kava Bar,,,619-255-6475,92104,,osm_node_766268942,California,Ray Street,,1433782839.000000,https://rootedkavabar.com/
nightlife,Fitzroy,AU,1390044177.000000,,,,,125,130.000000,-37.805240,144.983027,Grumpy's Green,,,+61 3 94161944,3065,,osm_node_763651276,Victoria,Smith Street,,1433782839.000000,http://www.grumpysgreen.com/
default,,IE,1388753318.000000,,,,,,128.000000,53.284784,-6.132708,Michal Photo,,,,,,osm_node_722271086,,,,1433782838.000000,http://www.michal-photo.com
default,,CZ,1412783131.000000,,,,,26,173.000000,49.780881,14.450354,Andrago Winery,,,,25744,,osm_node_1172394325,,,,1433782856.000000,http://www.andrago.cz
shopping,,FR,1373125113.000000,,,,,76,175.000000,48.843103,2.244305,John Landot,,,,,,osm_node_1180644958,,Rue du Château,,1433782857.000000,
lodging,Castlegar,CA,1405579333.000000,,,,,1944,189.000000,49.296331,-117.655599,Sandman Hotel Castlegar,,,250 365 8444,V1N 2W7,,osm_node_1294055764,British Columbia,Columbia Avenue,,1433782861.000000,http://www.sandmanhotels.ca/hotels/castlegar/
lodging,,US,1365922552.000000,,,,,680,180.000000,37.793707,-122.404209,Pacific Tradewinds Hostel,,,,,,osm_node_1205027816,California,Sacramento Street,,1433782858.000000,http://www.san-francisco-hostel.com/
food,,DE,1429987347.000000,,,,,,178.000000,51.217703,6.781741,La Lampada,,,,,,osm_node_1195141202,,,,1433782858.000000,http://www.lalampada.de
default,Wrocław,PL,1394048908.000000,,,,,26,179.000000,51.085929,17.016939,soon bitcoinkiosk.ch,,,,,,osm_node_1200489271,,Aleja Wiśniowa,,1433782858.000000,
food,,US,1397269594.000000,,,,,11101,183.000000,30.395815,-97.719638,Bamboo Bistro North,,,(512) 821-0022,,,osm_node_1245024653,Texas,Burnet Road,,1433782859.000000,http://north.bamboobistroonline.menufy.com/
default,,AR,1401047989.000000,,,,,9,181.000000,-34.866261,-58.042591,Farmacia Optica Agostini,,,+54 221 4722573,1896,,osm_node_1214938403,,CAMINO CENTENARIO Y DIAGONAL 92,,1433782859.000000,
shopping,Memmingen,DE,1385468467.000000,,atelier69@msn.com,,,7,182.000000,47.986026,10.179831,Ulrich Buhmann,,,+49 8331 48747,87700,,osm_node_1243877429,,Zwinggasse,,1433782859.000000,http://www.schmuckkraftwerk.de/
food,,US,1397272545.000000,,,,,10710,185.000000,30.398656,-97.747427,Bombay Bistro,,,512-342-2252,,,osm_node_1249568437,Texas,Research Boulevard,,1433782860.000000,http://bombay-bistro-research.menufy.com/
default,Prague,CZ,1362308915.000000,,rada@brmlab.cz,,,1,184.000000,50.098467,14.435906,brmlab,,,+420608801582,17000,,osm_node_1245556962,,Bubenská,,1433782860.000000,http://brmlab.cz/
food,St. Petersburg,US,1416843973.000000,,,,,111,194.000000,27.773918,-82.633613,The Ale and the Witch,,Sa-Su 15:00-24:00,+1-727-821-2533,33701,,osm_node_1315119882,Florida,2nd Ave NE,,1433782863.000000,
nightlife,Berlin,DE,1366234717.000000,,info@devils-kitchen.com,,,11,186.000000,52.493776,13.418117,devil's kitchen - bar & restaurant,,16:00+,0176 60945942,10967,,osm_node_1256737683,,Graefestraße,,1433782860.000000,http://devils-kitchen.com
lodging,,BG,1418307770.000000,,,,,,187.000000,42.762129,27.829487,EcoHotel Gora,,,+359 (0) 899 360 360,,,osm_node_1264564024,,,,1433782861.000000,http://www.ecohotelgora.com/
shopping,Mississauga,CA,1426900708.000000,,,,,119,193.000000,43.549595,-79.587653,Euro Flowers,,,,L5H 1E9,,osm_node_1313989921,Ontario,Lakeshore Road West,,1433782863.000000,http://www.euroflowers.ca
cafe,Hannover,DE,1418634218.000000,,,,,56,190.000000,52.373943,9.706477,Bohne,,,,30451,,osm_node_1300229225,,Limmerstraße,,1433782862.000000,
default,Glasgow,GB,1408378523.000000,,,,,254-290,192.000000,55.865469,-4.262776,CeX Glasgow Sauchiehall,,"Monday-Friday: 9am-6pm, Sunday: 11am-5pm",,G2 3EH,,osm_node_1312364652,,Sauchiehall Street,,1433782862.000000,
lodging,Calgary AB,CA,1405576418.000000,,,,,8001,215.000000,50.981573,-114.045222,Sandman Hotel & Suites Calgary South,,,403 252 7263,T2H 0B8,,osm_node_1379435640,Alberta,11 Street SE,,1433782871.000000,http://www.sandmanhotels.ca/hotels/calgary-south/
food,,US,1396332282.000000,,,,,4376,199.000000,39.040850,-94.417593,King Wok,,,816-373-3171,,,osm_node_1358364139,Missouri,S Noland Rd,,1433782865.000000,http://kingwokmo.com/
transport,,IT,1423738983.000000,,info@petrol-airport.it,,,,195.000000,46.038443,11.123043,Area di Servizio Petrol-Airport,,,,,,osm_node_1318116512,,,,1433782863.000000,http://petrol-airport.it/
food,Chaguanas,TT,1429528825.000000,,,,,195,197.000000,10.556875,-61.415486,Nick's Cafe,,,+1868 671-9292,,,osm_node_1327438001,,Caroni Savannah Road,,1433782864.000000,
lodging,Cagliari,IT,1418408492.000000,,info@cagliarinovecento.it,,,23,198.000000,39.216013,9.111132,Affittacamere B&B Cagliari Novecento,,,+39 070650607,09124,,osm_node_1332805104,,Via Giovanni Maria Angioy,,1433782864.000000,http://www.cagliarinovecento.it
food,,US,1396333406.000000,,,,,4400,201.000000,39.040201,-94.416048,Mama Garden,,,816-373-0666,,,osm_node_1361085152,Missouri,South Noland Road,,1433782866.000000,http://mamagardenmo.com/
food,,ES,1415272730.000000,,,,,,200.000000,40.435125,-3.683520,Bofinn,,,,,,osm_node_1359795121,,Calle de Diego de León,,1433782865.000000,
cafe,Pittsburgh,US,1367162582.000000,,,,,232,210.000000,40.457879,-79.925400,Oh Yeah!,,,412-200-5574,15206,,osm_node_1371543261,penna,South Highland Avenue,,1433782869.000000,http://theohyeah.com
food,,ES,1415272615.000000,,,,,85,202.000000,40.436591,-3.686576,Tamero,,,,,,osm_node_1361587785,,Calle de Serrano,,1433782866.000000,
food,,ES,1403285375.000000,,,,,17,203.000000,40.437361,-3.686552,La Úrsula,,,,,,osm_node_1361587792,,Calle de López de Hoyos,,1433782867.000000,
food,,ES,1415272642.000000,,,,,,204.000000,40.437451,-3.686503,La Taberna,,,,,,osm_node_1361587800,,Calle de Serrano,,1433782867.000000,
food,,ES,1415272509.000000,,,,,,205.000000,40.436165,-3.684821,La Armonia,,,,,,osm_node_1364704729,,Calle del General Oráa,,1433782867.000000,
food,,ES,1415272593.000000,,,,,118,206.000000,40.436197,-3.686248,Mesón 5Jotas,,,,28006,,osm_node_1364704733,,Calle de Serrano,,1433782868.000000,
food,,ES,1415272574.000000,,,,,,207.000000,40.436407,-3.686189,Ori,,,,,,osm_node_1364704736,,Calle de Serrano,,1433782868.000000,
food,,ES,1415272698.000000,,,,,,208.000000,40.435169,-3.684965,El Séptimo,,,,,,osm_node_1366075265,,Calle de Diego de León,,1433782868.000000,
food,,ES,1415272713.000000,,,,,,209.000000,40.435201,-3.684493,El Asador de Aranda,,,,,,osm_node_1366075277,,Calle de Diego de León,,1433782869.000000,
default,Berlin,DE,1407061614.000000,,,,,93,211.000000,52.517755,13.458180,do you space,,,,10247,,osm_node_1372898402,,Rigaer Straße,,1433782869.000000,http://www.doyouspace.net/
shopping,Graz,AT,1403451621.000000,,,,,40,212.000000,47.063834,15.442346,Fahrradküche Graz,,Th 17:00-21:00,,8010,,osm_node_1373592781,,Schießstattgasse,,1433782870.000000,http://www.fahrradkueche.com/
shopping,Berlin,DE,1380906332.000000,,,,,8,213.000000,52.513369,13.462218,Tricky Tunes,,,,10247,,osm_node_1374234641,,Mainzer Straße,,1433782870.000000,
default,Helsinki,FI,1409162341.000000,,,,,36a,214.000000,60.164537,24.932751,Helsinki Shooting Club,,,+358 9 8569 6980,00180,,osm_node_1377610483,,Albertinkatu,,1433782870.000000,
lodging,,CA,1405578763.000000,,,,,,172.000000,43.642270,-79.631136,Stage West,,,,,,osm_node_1171627903,Ontario,,,1433782856.000000,http://www.sandmanhotels.ca/hotels/toronto-airport/
attraction,,CA,1385815253.000000,,,,,,176.000000,49.880725,-119.504094,Doctor Recommended,,,,,,osm_node_1182749203,British Columbia,,,1433782857.000000,http://www.doctorrecommendedmusic.com/
food,Boulder,US,1413064829.000000,,,,,675,177.000000,39.999106,-105.253975,Moe's Original Bar B Que,,,+1 303 4404227,,,osm_node_1185570523,Colorado,30th Street,,1433782857.000000,http://www.moesoriginalbbq.com/
default,Paris,FR,1465975365.000000,1st florist to accept bitcoin in Paris,atelierdelephemere@orange.fr,,,10,8227.000000,48.829357,2.368948,L'atelier de l'éphémère,,,+33145851414,75013,,,,Jeanne d'Arc,,1465975440.000000,http://www.atelierdelephemere.com
default,Seoul,KR,1488434921.000000,,,,,,9527.000000,50.110644,14.466548,Seoul Coin,,,,,,,,,,1488434938.000000,
default,Vienna,AT,1488455740.000000,Stadler Völkel Attorneys at Law provide expert advice in selected areas of commercial and business law.,office@svlaw.at,StadlerVoelkelRechtsanwaelte,,24,9528.000000,48.204641,16.374087,Stadler Völkel Rechtsanwälte,Stadler Volkel Rechtsanwalte,,+43 1 997 1025,1010,,,,Seilerstätte,,1488455740.000000,http://www.svlaw.at
default,Albany,US,1402449591.000000,,,,,467,219.000000,42.640269,-73.784384,Organica: Garden Supply & Hydroponics,,,518-729-5950,12209,,osm_node_1404744875,New York,Delaware Avenue,,1433782873.000000,http://www.OrganicaGardenSupply.com
default,Palo Alto,US,1415410545.000000,,,,,2123,221.000000,37.426901,-122.147963,Red Door Movie Rental,,,(650) 330-1201,94306,,osm_node_1432280517,California,El Camino Real,,1433782873.000000,http://reddoormovies.com/
food,"Cambridge, Massachusetts",US,1367401404.000000,,,,,450,222.000000,42.363664,-71.101129,VeggieGalaxy,,Mo-Th 07:00-22:00; Fr 07:00-23:00;  Sa 09:00-23:00; Su 09:00-22:00,+1 617 4971513,,,osm_node_1447593250,Massachusetts,Massachusetts Ave.,,1433782874.000000,http://veggiegalaxy.com/
shopping,,US,1418872293.000000,,,,,,226.000000,39.972403,-75.134511,The Bicycle Stable,,,,,,osm_node_1479238356,penna,,,1433782875.000000,
food,,US,1397301292.000000,,,,,620,227.000000,30.268916,-97.742835,Thai Passion - Downtown,,,(512) 472-1244,,,osm_node_1481372842,Texas,Congress Ave,,1433782875.000000,http://thaipassiondowntown.menufy.com/
lodging,Ritten - Renon,IT,1395831877.000000,,,,,45,318.000000,46.563711,11.413674,Bergasthof Plörr,,,,39054,,osm_node_1991003959,,Oberinn,,1433782910.000000,http://www.ploerr.com
grocery,Rovereto,IT,1423589906.000000,,info@drogheriamicheli.it,,,16,223.000000,45.888989,11.043928,Drogheria Micheli,,,+39 0464 421154,38068,,osm_node_1457025326,,Via Mercerie,,1433782874.000000,http://www.drogheriamicheli.it/
shopping,Bratislava,SK,1393556209.000000,,,,,13,224.000000,48.147143,17.118802,Silver Moon,,"Mo-Fr 10:00-11:30,12:00-18:00",,811 08,,osm_node_1470674920,,Cintorínska,,1433782874.000000,http://www.silvermoon.sk/
lodging,Rotterdam,NL,1392415051.000000,,,,,199,225.000000,51.915147,4.464326,Hotel van Walsum,,,+31104363275,3014 HC,,osm_node_1477798665,,Mathenesserlaan,,1433782875.000000,http://hotelvanwalsum.nl
food,Manhattan,US,1395400820.000000,,,,,1120,228.000000,39.185056,-96.574061,Green Tea Sushi Bar,,,785-539-9888,66502,,osm_node_1483865248,Kansas,Laramie Street,,1433782876.000000,http://greentea.menufy.com/
lodging,Cambria,US,1388651481.000000,,,,,,230.000000,35.572302,-121.112038,Mariner's Inn,,,+1 805 927 4624,CA 93428,,osm_node_1484764401,California,Moonstone Beach Drive,,1433782876.000000,http://www.marinersinncambria.com/
default,Rochester,US,1388441567.000000,,,,,72,232.000000,43.155058,-77.618934,Netsville,,,,14614,,osm_node_1503088501,New York,Cascade Drive,,1433782877.000000,http://netsville.com
nightlife,Madrid,ES,1409824787.000000,,,,,63,229.000000,40.432669,-3.687272,Callejón de Serrano,,,+34 918310489,28006,,osm_node_1483924474,,Calle de Serrano,,1433782876.000000,http://www.elcallejondeserrano.com/
shopping,Bozeman,US,1383176751.000000,,,,,2740,242.000000,45.672306,-111.074024,Rooks Comics and Games,,12:00-22:00,406-556-2153,59718,,osm_node_1573003147,Montana,West Main Street,,1433782880.000000,
food,Salt Lake City,US,1389025552.000000,,,,,344  S,244.000000,40.761646,-111.888534,Pie Hole,,,801-359-4653,,,osm_node_1581342044,Utah,State Street,,1433782881.000000,http://pieholeutah.com/
default,Westerstede,DE,1383905170.000000,,,,,12,233.000000,53.258832,7.924502,Rechtsanwalt Daniel Dietrich,,,04488 520 3333,26655,,osm_node_1504737798,,Am Brookwehr,,1433782877.000000,https://www.anwalt-wst.de
default,Harrow,GB,1414404490.000000,,,,,280,234.000000,51.582147,-0.332312,M & M Hair and Beauty,,,+44 20 3601 3013,,,osm_node_1508663640,,Station Road,,1433782878.000000,
default,,GB,1417699719.000000,,,,,282,235.000000,51.582115,-0.332359,CeX Harrow,,,,,,osm_node_1508663692,,Station Road,,1433782878.000000,
default,Ghent,BE,1424461007.000000,,,,,75,236.000000,51.059721,3.732600,Whitespace,,,,,,osm_node_1528717378,,Blekerijstraat,,1433782878.000000,http://0x20.be/
nightlife,Gent centrum,BE,1428010563.000000,,,,,18,237.000000,51.054705,3.721504,5 voor 12,,,,9000,,osm_node_1532795016,,Korenmarkt,,1433782879.000000,http://www.vijfvoortwaalf.be/
food,,TH,1393939077.000000,,,,,,238.000000,12.928025,100.874346,Pattaya Beer Garden,,,+66 38 710754,,,osm_node_1557038866,,Beach Rd,,1433782879.000000,http://www.pattayabeergarden.com/
default,Milano,IT,1374227669.000000,,,,,,240.000000,45.460931,9.106109,MBR Architettura,,,,20152,,osm_node_1563721020,,Via delle Forze Armate,,1433782880.000000,http://luce.co.nf
default,Denver,US,1418083670.000000,,,,,2314,247.000000,39.754824,-104.987136,Unleaded Group,,07:00-20:00,(720) 221-7126,80205,,osm_node_1618338809,Colorado,Broadway,,1433782882.000000,http://www.unleadedsoftware.com/
food,Sankt Peter-Ording,DE,1388764725.000000,,,,,17,243.000000,54.315705,8.608352,Friesenkate,,,,25826,,osm_node_1578098342,,Im Bad,,1433782881.000000,
food,,IE,1390081801.000000,,,,,,245.000000,53.203906,-6.101129,3 Amigos,,,,,,osm_node_1590910131,,,,1433782881.000000,
cafe,Wien,AT,1401361632.000000,,,,,72,246.000000,48.191622,16.395116,Cafe & Bar Diesels,,"Mo-Fr 16:00-02:00;Sa ""for private partys only""",,1030,,osm_node_1600335827,,Rennweg,,1433782882.000000,http://www.diesels.at
food,stamford,US,1407201243.000000,,,,,82,252.000000,41.037499,-73.524094,Brennan's By The Beach,,11AM - 1AM,203-323-1787,06902,,osm_node_1666083164,Connecticut,Iroquois Rd,,1433782884.000000,http://www.brennansbythebeach.com/
food,,AR,1404804983.000000,,,,,401,248.000000,-34.596169,-58.373228,Porto Pirata,,,+54 (11) 4314 1233,,,osm_node_1625178367,,Marcelo T. de Alvear,,1433782882.000000,
cafe,Albany,US,1392000270.000000,,,,,5,218.000000,42.654094,-73.750415,The French Press Cafe & Creperie,,07:00-18:00,,12207,,osm_node_1400582171,New York,Clinton Square,,1433782872.000000,
food,Milano,IT,1401180699.000000,,,,,7,250.000000,45.479727,9.221082,EDA Milano,,Mo 11:00-14:30;Tu-Sa 11:00-24:00;Su 11:00-14:30,+39 02 26681962,20133,,osm_node_1652682809,,Via Filippino Lippi,,1433782883.000000,http://edamilano.com/
food,,US,1396010273.000000,,,,,3750,253.000000,37.751009,-97.261746,Two Brothers BBQ Woodlawn,,,316-691-8950,,,osm_node_1671589650,Kansas,North Woodlawn Street,,1433782884.000000,http://twobroswoodlawn.menufy.com/
food,,US,1397299467.000000,,,,,2438,254.000000,30.357838,-97.732983,Pho Thaison Vietnamese Cuisine,,,512-420-0001,,,osm_node_1674064085,Texas,W Anderson Ln,,1433782885.000000,http://phothaisonaustin.com/
food,Vilnius,LT,1405720718.000000,,,,,1A,255.000000,54.672631,25.279598,Pilėnai,,Mo-Su 11:00-23:00,,01314,,osm_node_1674365563,,Kauno g.,,1433782885.000000,https://www.facebook.com/Pilenai
lodging,,BG,1386712407.000000,,,,,,256.000000,42.874755,24.639129,Азарея,,,+359 886 447 943,,,osm_node_1680610339,,,,1433782885.000000,http://www.azareiya.com/
shopping,Gent,BE,1411820435.000000,,,,,24,257.000000,51.049848,3.721380,Gameswap,,,,9000,,osm_node_1690592813,,Schouwburgstraat,,1433782886.000000,http://gameswap.be
cafe,,SE,1400745515.000000,,,,,,217.000000,59.311766,18.078813,Twang,,,,,,osm_node_1397247512,,,,1433782872.000000,http://twang.se/fiket/
default,Gorzów Wlkp.,PL,1466020184.000000,,detektywi.gorzow@gmail.com,,,,8228.000000,52.730964,15.236063,Detektywi Gorzów,Detektywi Gorzow,,,66-400,,,lubuskie,Pocztowa 20/4,,1466020184.000000,http://www.detektywi-gorzow.pl
attraction,Małe Leźno,PL,1386944559.000000,,lezno111@gmail.com,,,44,280.000000,53.271039,19.703235,"Gospodarstwo Agroturystyczno - Ekologiczne""Stajnia Leźno""",,,+48564935607,87-313,,osm_node_1773386228,,,,1477057124.000000,
food,Philadelphia,US,1418872254.000000,,,,,1050,264.000000,39.966556,-75.139159,PYT,,,215-964-9009,19123,,osm_node_1712043067,penna,North Hancock Street,,1433782890.000000,http://pytphilly.com/
lodging,,SK,1385830645.000000,,,,,20,263.000000,48.450633,18.905717,Apartmán ajaj,,,+421905757296,,,osm_node_1710581992,,Križovatka,,1433782889.000000,http://apartman.ajaj.sk
default,Redwood City,US,1419672706.000000,,,,,850-B,266.000000,37.485559,-122.226473,It Is Vapor,,,(650) 993-2447,94063,,osm_node_1721445031,California,Main Street,,1433782891.000000,http://www.itisvapor.com
shopping,Torbole sul Garda,IT,1433312817.000000,,info@bertaminishop.com,,,2,265.000000,45.869228,10.876025,Bertamini,,,,38069,,osm_node_1712568283,,Piazza Benacense,,1433782890.000000,http://www.bertaminishop.com/
food,Cambridge,US,1399490129.000000,,,,,450,269.000000,42.363616,-71.101054,Moksa,,,,02139,,osm_node_1728534733,Massachusetts,Massachusetts Ave,,1433782893.000000,
default,Hamburg,DE,1389110463.000000,,,,,8,267.000000,53.652838,10.163109,n7media - Agentur für Kommunikations- und Webdesign,,,,22359,,osm_node_1723084643,,Kattjahren,,1433782892.000000,http://www.n7media.de
default,Willebadessen,XXX,1400621284.000000,,,,,5,268.000000,51.626755,9.033075,Kunstkopien in Öl auf Leinwand - Dorothea Adam,,,,34439,,osm_node_1723263308,,Alte Schulstraße,,1433782892.000000,
food,Grand Rapids,US,1393649512.000000,,,,,154,273.000000,42.963024,-85.664517,One Stop Coney Shop,,Mo-Fr 11:00-17:00; Sa 11:00-15:00,1.616.233.9700,49503,,osm_node_1746022019,Michigan,Fulton Street East,,1433782894.000000,http://www.onestopconeyshop.com/
lodging,Mendoza,AR,1373401799.000000,,,,,435,270.000000,-32.888398,-68.844846,Hotel San Martín,,,+54-261-4380875 +54-261-4380677,,,osm_node_1729115289,,Espejo,,1433782893.000000,http://hotelsanmartinmendoza.com/
food,Carbonera,IT,1398602987.000000,,,,,85,271.000000,45.677105,12.285714,Pizzeria Tiepolo,,,+39 0422397559,31030,,osm_node_1738385350,,Via Brigata Marche,,1433782893.000000,http://www.pizzeriatiepolo.com/
shopping,Berlin,DE,1381173257.000000,,service@otherland-berlin.de,,,25,272.000000,52.488887,13.394705,Otherland,,Mo-Fr 11:00-19:00; Sa 10:00-18:00,+49 30 69505117,10961,,osm_node_1741288394,,Bergmannstraße,,1433782894.000000,http://otherland-berlin.de/
cafe,,US,1397296997.000000,,,,,12221,278.000000,30.428728,-97.750431,Minh's Cafe,,,512-249-6464,,,osm_node_1769301359,Texas,Riata Trace Parkway,,1433782896.000000,http://minhscafe.menufy.com/
lodging,Górzno,PL,1400001308.000000,,kontakt@podnamiot.cba.pl,,,,274.000000,53.200096,19.645803,Pole namiotowe,,,+48508726111,87-320,,osm_node_1746401571,,Wędkarska,,1433782894.000000,http://www.podnamiot.cba.pl
lodging,Viña del Mar,CL,1403486149.000000,,,,,3,275.000000,-33.026867,-71.565124,La Casa del Almirante,,,+56978984546,,,osm_node_1753847061,,Pasaje El Hogar,,1433782895.000000,http://www.lacasadelalmirante.com
default,Ronco Biellese,IT,1397052767.000000,,,,,61,276.000000,45.581587,8.104882,michele silvestri,,,,13845,,osm_node_1754153408,,Via Libertà,,1433782895.000000,
attraction,Zürich,CH,1374240336.000000,,,,,26,277.000000,47.381034,8.533803,Das Russische Sprachstudio,,,,8005,,osm_node_1769042120,,Josefstrasse,,1433782896.000000,https://www.ru-sprachstudio.ch/
default,New York,US,1385489709.000000,,,,,5,282.000000,40.738919,-73.990707,Steve Alper DMD,,,,10003,,osm_node_1797680224,New York,East 19th Street,,1433782897.000000,http://alperdmd.com/
food,Amersfoort,NL,1387841036.000000,,admin@restaurantjia.com,,,189-193,283.000000,52.154962,5.374537,Jia,,,033 - 461 88 99,3812 GZ,,osm_node_1809803244,,Piet Mondriaanplein,,1433782898.000000,http://restaurantjia.com/
default,Wien,AT,1414180363.000000,,,,,74,284.000000,48.187290,16.373315,BOTENDIENST|QUICKTRANSPORT.AT,,05:00 - 20:00,+43 1 5337297,1040,,osm_node_1812596888,,Favoritenstraße,,1433782898.000000,http://www.quicktransport.at
food,Fort Myers,US,1393078866.000000,,,,,1815-1,288.000000,26.642848,-81.863250,ZCrêpes Café,,,239-690-2359,33901,,osm_node_1842444023,Florida,Fowler Street,,1433782900.000000,http://www.zcrepes.com
grocery,Helsinki,FI,1432929222.000000,,,,,5,286.000000,60.160355,24.919598,K-Market Jätkäsaari,,,,00220,,osm_node_1819819004,,Tyynenmerenkatu,,1433782899.000000,
lodging,,BE,1431604176.000000,,info@laportecochere.com,,,22,287.000000,50.849396,2.882953,La Porte Cochère,,,+3257446994,,,osm_node_1840390330,,Paterstraat,,1433782899.000000,http://www.laportecochere.com/
default,,US,1387380611.000000,,,,,,292.000000,40.500986,-74.652920,Bars 'N Beats Recording Studio,,,1 (732) 794-9296,,,osm_node_1860844095,New Jersey,,,1433782901.000000,http://www.BarsNBeatsRecording.com
food,Helsinki,FI,1417000702.000000,,,,,26,289.000000,60.163789,24.947867,Spis,,Tu-Sa 17:00-24:00,+358 45 305 1211,00130,,osm_node_1851225953,,Kasarminkatu,,1433782900.000000,http://spis.fi/
default,Saint-Jérôme,CA,1392585150.000000,,,,,1025,290.000000,45.770300,-73.978673,PerronHosting.com,,,,,,osm_node_1859124624,,Avenue du Parc,,1433782900.000000,http://www.perronhosting.com
grocery,,US,1365918799.000000,,,,,451,296.000000,37.772025,-122.409227,Cups and Cakes Bakery,,,,,,osm_node_1880215032,California,9th Street,,1433782902.000000,http://cupsandcakesbakery.com
lodging,Helsinki,FI,1385485677.000000,,,,,27,293.000000,60.193792,24.956026,Cheapsleep Hostel,,,,,,osm_node_1863930494,,Sturenkatu,,1433782901.000000,
default,,TH,1421255818.000000,,,,,,295.000000,13.863554,100.617165,กองตำรวจสื่อสาร,,,,,,osm_node_1879020382,,,,1433782902.000000,http://www.logobkk.com
food,,US,1397053676.000000,,,,,2518,298.000000,35.495036,-97.531718,Lido Asian Cuisine,,,405-521-1902,,,osm_node_1890103096,Oklahoma,North Military Avenue,,1433782903.000000,http://lidorestaurantokc.com/
default,,CZ,1417178591.000000,,,,,4342,297.000000,49.220221,17.649457,?,,,,76001,,osm_node_1880754454,,třída Tomáše Bati,,1433782903.000000,
default,Eging Am See,DE,1366300752.000000,,,,,4,259.000000,48.709622,13.242705,Romantikresort,,,+49 85449 972520-0,94535,,osm_node_1697295288,,Kroissenhof,,1433782887.000000,http://romantikresort.de/
default,Poznań,PL,1470985470.000000,www.Manunu.eu,kontakt@manunu.eu,manunuu,,,8418.000000,52.409789,16.901398,www.Manunu.eu,,,,60-508,,,wielkopolska,,manunuu,1472327671.000000,http://www.manunu.eu/
default,Wien,AT,1401966552.000000,,,,,74,301.000000,48.224400,16.342101,Masshemden Atelier Voglhuber,,,,1180,,osm_node_1906634248,,Martinstraße,,1433782904.000000,
default,Kitchener,CA,1395248839.000000,,,,,A50,321.000000,43.449683,-80.491063,Sara's KW Driving Academy,,,519-725-9544,N2G 1X4,,osm_node_2014573595,Ontario,Ontario Street South,,1433782911.000000,
food,,US,1397052068.000000,,,,,119,310.000000,35.211593,-97.442252,Padthai Thai Restaurant,,,405-360-5551,,,osm_node_1953893343,Oklahoma,West Boyd Street,,1433782908.000000,http://padthainorman.com/
default,Sevilla,ES,1385854474.000000,,,,,5,304.000000,37.374438,-5.978698,Clínica Lucq,,,,41013,,osm_node_1922962173,,avenida Ramón Carande,,1433782905.000000,http://clinicalucq.es/
default,,SE,1386234831.000000,,,,,,305.000000,59.345703,18.095485,Alternativhälsan Östermalm,,,+46-8-6650850,,,osm_node_1925836583,,,,1433782906.000000,http://www.alternativhalsan.nu
default,,CH,1384974419.000000,,,,,2,306.000000,47.372385,8.540990,Peyer Fine Art GmbH,,,,8001,,osm_node_1931313364,,Pfalzgasse,,1433782906.000000,http://peyer.com/
food,Göteborg,SE,1386686686.000000,,,,,39,307.000000,57.698515,11.977152,Jonsborg Gatukök,,,,411 27,,osm_node_1932609744,,Kungsportsavenyn,,1433782907.000000,http://www.jonsborgsgrill.se/
food,,KR,1404008794.000000,,,,,16,308.000000,37.585497,127.029266,이자카야 동경구락부,,AM 11:00 ~ AM 03:00 (16Hrs),+82 2 924-1882,,,osm_node_1934142051,,인촌로24길,,1433782907.000000,
shopping,Olomouc - Droždín,CZ,1426093958.000000,,,,,324/32,309.000000,49.612461,17.334075,Okrasná školka Droždín,,,,77900,,osm_node_1938127057,,Horní Úlehla,,1433782907.000000,http://www.drozdin.cz
default,,US,1385474327.000000,,,,,920,311.000000,41.249824,-96.082675,CoVis CoWorking,,,,68114,,osm_node_1958473395,Nebraska,South 107th Avenue Suite 106,,1433782908.000000,http://www.covisco.com
food,St. Petersburg,US,1418692843.000000,,,,,170,312.000000,27.773313,-82.633105,Cassis American Brasserie,,,(727) 827-2927,33701,,osm_node_1963718475,Florida,Beach Drive,,1433782908.000000,http://cassisab.com/
default,St. Petersburg,US,1418747200.000000,,,,,915,322.000000,27.771323,-82.647327,Paper Street Market,,,(727) 894-7777,33701,,osm_node_2018397825,Florida,Central Avenue,,1433782912.000000,http://www.paperstreetvintage.com/
food,Hannover,DE,1427731810.000000,,,,,43,313.000000,52.388150,9.740857,boca gastrobar,,,,30161,,osm_node_1971992339,,Kriegerstraße,,1433782909.000000,http://www.boca-gastrobar.de
food,Dalsbruk Taalintehdas,FI,1422028740.000000,,,,,8,315.000000,60.019558,22.506352,Portside,,,+358 2 466 1745,25900 Taalintehdas,,osm_node_1977814684,,Stallbacksvägen,,1433782909.000000,http://www.portside.fi/
nightlife,港区 (Minato),JP,1414622890.000000,,,,,小田切ビル1F,316.000000,35.663793,139.732237,awabar,,"Mo-Fr 18:00-25:30, Sa 18:00-24:00",03-6804-5739,106-0032,,osm_node_1985330445,,六本木4-10-11,,1433782910.000000,http://awabar.jp
lodging,Budapest,HU,1403522814.000000,,,,,8,317.000000,47.505482,19.061427,Paprika Hostel,,,+36 70 606 1075,1061,,osm_node_1989574670,,Jókai tér,,1433782910.000000,http://www.hostelworld.com/hosteldetails.php/Paprika-Hostel/Budapest/87576?propNum=87576
default,,GR,1387065943.000000,,,,,6,319.000000,37.977651,23.728267,Κόμμα Πειρατών Ελλάδας - Pirate Party of Greece - Κεντρικό Γραφείο,,,,,,osm_node_1996272959,,Βασιλικής,,1433782911.000000,
default,Albuquerque,US,1366300638.000000,,,,,1131,303.000000,35.095741,-106.658747,New Mexico Tea Company,,,,87102,,osm_node_1914255840,New Mexico,Mountain Road Northwest,,1433782905.000000,http://www.nmteaco.com
food,St. Petersburg,US,1395123772.000000,,,,,10466,323.000000,27.866893,-82.645090,Yummy Thai,,,(727)577-1999,33716,,osm_node_2018598380,Florida,Roosevelt Boulevard North,,1433782912.000000,http://yummythaistpete.com/
food,,US,1395823521.000000,,,,,5954,333.000000,39.015033,-95.760519,Oriental Express,,,785-271-2308,66614,,osm_node_2081354215,Kansas,Southwest 29th Street,,1433782915.000000,http://orientalexpresstopeka.menufy.com/
lodging,Revelstoke BC,CA,1405581964.000000,,,,250-837-5460,1901,302.000000,51.009989,-118.218020,Sandman Hotel Revelstoke,,,250-837-6161,V0E 2S0,,osm_node_1910930762,British Columbia,Laforme Boulevard,,1433782905.000000,http://www.sandmanhotels.ca/hotels/revelstoke/
default,Hannover,DE,1430906697.000000,,,,,55,325.000000,52.328570,9.775491,Lumen GmbH,,,,30519,,osm_node_2024864454,,Wiehbergstraße,,1433782913.000000,
default,Warszawa,PL,1403104868.000000,,sklep@meblezrattanu.pl,,,5,326.000000,52.200249,21.077699,Centrum Mebli Rattanowych i Stylowych,,Mo-Fr 10:00-19:00; Sa 10:00-16:00,22 851 61 01,02-977,,osm_node_2025588627,,Antoniewska,,1433782913.000000,http://www.meblezrattanu.pl
default,Warszawa,PL,1391106738.000000,,,,,83,327.000000,52.224891,20.957361,Elektro-Instalacje,,,+48513660815,01-242,,osm_node_2025682006,,Aleja Prymasa Tysiąclecia,,1433782913.000000,http://elektryk-warszawa.org/
lodging,Ubud,ID,1407564935.000000,,,,,,328.000000,-8.493998,115.277551,Viceroy Bali,,,+62 361 971 777,80571,,osm_node_2047765216,,"Jalan Lanyahan, Br Nagi",,1433782914.000000,http://www.viceroybali.com
food,Genève,CH,1386790407.000000,,,,,6,329.000000,46.211306,6.148535,Crêperie des Pâquis,,,,1201,,osm_node_2050878473,,rue de Zurich,,1433782914.000000,http://creperie-paquis.com/
grocery,,FI,1428655290.000000,,,,,94,330.000000,60.187573,24.918532,K-Market Mansku,,,,00250,,osm_node_2066852586,,Mannerheimintie,,1433782914.000000,
attraction,תל אביב-יפו,IL,1387227911.000000,,,,,19א,331.000000,32.070028,34.773014,michal kindergarden,,,052-7026249,,,osm_node_2079005319,,מרכז בעלי מלאכה,,1433782915.000000,http://gan-michal-tel-aviv.blogspot.co.il/
default,,IL,1391209696.000000,,,,,31,332.000000,32.091112,34.787301,Didoo Cafe,,,,,,osm_node_2079037355,,פנקס דוד צבי,,1433782915.000000,
food,,US,1395821389.000000,,,,,2131,334.000000,39.027837,-95.725453,Asian Cafe,,,785-271-2038,,,osm_node_2081637185,Kansas,Southwest Gage Boulevard,,1433782916.000000,http://asiancafetopeka.com/
lodging,,US,1390882878.000000,,,,,1020,335.000000,25.780554,-80.130984,Clevelander Hotel,,,(305) 532-4006,33139,,osm_node_2082916882,Florida,Ocean Drive,,1433782916.000000,http://www.clevelander.com/
default,West Grove,US,1391293171.000000,,,,(610) 869-7844,881,339.000000,39.823182,-75.881967,Penn Animal Hospital,,,(610) 869-3033,19390,,osm_node_2096220074,penna,W Baltimore Pike,,1433782918.000000,
default,Grodzisk Mazowiecki,PL,1381316515.000000,,,,,22,336.000000,52.107372,20.641216,Aurelius Interactive,,,+48 22 755 11 11,05-825,,osm_node_2085839320,,Rzemieślnicza,,1433782916.000000,http://aurelius.pl/
default,Rzeszów,PL,1391542470.000000,,,,,39,337.000000,50.038047,22.033883,Bezpol,,,,35-301,,osm_node_2087245739,,Lwowska,,1433782917.000000,
cafe,,SK,1367599242.000000,,,,,2,338.000000,49.223973,18.739157,Literárna kaviareň,,,,,,osm_node_2094671729,,Bottova,,1433782917.000000,
default,St Kilda,AU,1384001715.000000,,,,,163a,324.000000,-37.869432,144.980374,Eclectico,,,,3182,,osm_node_2024758250,Victoria,Acland Street,,1433782912.000000,
lodging,Reykjavik,IS,1397329635.000000,,,,,19,300.000000,64.154026,-21.998651,Blue House B&B,,,+354 7756480,170,,osm_node_1902157875,,Valhúsabraut,,1433782904.000000,
default,Ipsach,CH,1466061737.000000,,juerg@kradolfer.com,jurg.kradolfer,,5,8231.000000,47.111992,7.227416,Jürg Kradolfer,Jurg Kradolfer,,+41 79 251 17 18,2563,,,BE,Keltenstrasse,,1466061737.000000,http://representative.ch/
default,Geneva,CH,1403706028.000000,,,,,2,341.000000,46.193418,6.140772,Venusia,,,022 321 4 123,1205,,osm_node_2097397714,,rue Rodo,,1433782918.000000,http://www.venusia.ch/
shopping,Sacramento,US,1414224449.000000,,,,,2800,345.000000,38.595699,-121.398368,Arden Jewelers,,,+1 916 481 8006,95825,,osm_node_2116593040,California,Arden Way,,1433782920.000000,
lodging,Cuenca,EC,1401231528.000000,,,,,,344.000000,-2.896910,-79.013943,Apartamentos Otorongo,,,593 2 882788,,,osm_node_2107584856,,Avenida 12 de Abril,,1433782919.000000,
shopping,St. Petersburg,US,1418225950.000000,,,,,651,349.000000,27.771354,-82.642634,The Trunk Stylists,,,,33701,,osm_node_2130265234,Florida,Central Avenue,,1433782921.000000,http://thetrunkonline.com/
food,New Westminster,CA,1398449168.000000,,REUPBBQ@GMAIL.COM,,,810,366.000000,49.200092,-122.911515,RE-UP BBQ,,9am-8pm,604-553-3997,,,osm_node_2184644008,British Columbia,Quayside Drive,,1433782929.000000,http://reupbbq.com/
default,,GB,1414403971.000000,,,,,28,348.000000,53.799557,-1.544375,CeX Leeds,,,+44 845 345 1664,,,osm_node_2129684012,,The Headrow,,1433782921.000000,
shopping,Port Townsend,US,1411768866.000000,,,,,230,353.000000,48.114888,-122.756728,The Broken Spoke,,,360-379-1295,98368,,osm_node_2133994339,Washington,Taylor Street,,1433782922.000000,http://thebrokenspokept.blogspot.com/
default,,CZ,1418556044.000000,,,,,1326/15,351.000000,50.039286,14.332330,JSV International Assistant Service,,,,15500,,osm_node_2130815868,,Rotavská,,1433782922.000000,
cafe,Portland,US,1383705816.000000,,,,,2314,364.000000,45.504682,-122.642143,Papa G's,,Mo-Sa 11:00-20:00;Su 12:00-20:00,+1.503-235-0244,97202,,osm_node_2175225974,Oregon,Southeast Division Street,,1433782928.000000,http://papagees.com
default,Berlin,DE,1387368257.000000,,office@artx.de,,,3,354.000000,52.531321,13.423138,artx Designagentur Berlin,,,+49-030-4404-7874,10405,,osm_node_2139350753,,Winsstraße,,1433782923.000000,http://www.artx.de
cafe,,SE,1420457905.000000,,,,,,355.000000,59.334728,18.078664,Blueberry,,Mo-Fr 10:00-18:00;Sa 11:00-15:00;Su off,+46-8-6612550,,,osm_node_2139367705,,,,1433782923.000000,http://www.blueberrylifestyle.se
nightlife,Ostrava,CZ,1389625820.000000,,,,,1889/13,356.000000,49.837084,18.182272,DRUŽBA BOULDERING WALL,,"Mo-Fr 14:00-22:00 ""see web for further informations""",,70800,,osm_node_2140192738,,Žilinská,,1433782924.000000,http://www.druzba.9e.cz
default,Savannah,US,1418404190.000000,,,,,9,368.000000,32.080584,-81.090736,Anonymous Tattoo,,Mo-Th 12:00-20:00; Sa 12:00-21:00; Su 12:00-18:00,1 912 234 3900,31401,,osm_node_2186328634,Georgia,East Bay Street,,1433782930.000000,http://anonymoustattoo.com/
nightlife,Rovereto,IT,1419373070.000000,,,,,27,358.000000,45.888140,11.044345,Mani Al Cielo,,,,38068,,osm_node_2151018561,,Piazza Malfatti,,1433782925.000000,
shopping,Wien,AT,1414690317.000000,,,,,37,359.000000,48.180770,16.333344,Malefitz,,,,1120,,osm_node_2154656748,,Meidlinger Markt,,1433782925.000000,http://malefitz.at
cafe,Clifton Hill,AU,1404048837.000000,,,,,23,370.000000,-37.794259,144.998243,Squirrel Café,,M-F 6.30-4.00 Sat-Sun 8.00-4.00,,3071,,osm_node_2191963004,Victoria,Groom Street,,1433782931.000000,
cafe,Göteborg,SE,1385989606.000000,,,,,32,361.000000,57.698665,11.968456,Foxx Bar,,,,411 24,,osm_node_2168909898,,Vasagatan,,1433782926.000000,https://www.facebook.com/BarFoxx
default,Rovereto,IT,1427897546.000000,,,,,92,362.000000,45.890782,11.036406,Bellezza Studio,,,,38068,,osm_node_2170989194,,Corso Antonio Rosmini,,1433782927.000000,http://bellezzastudio.eu
default,,AR,1380210113.000000,,,,,,696.000000,-32.933707,-68.862520,Ventonegro - Mountain Guide,,,,,,osm_node_2472283880,,,,1433783058.000000,http://www.ventonegro.com.ar
food,Wörrstadt,DE,1391453531.000000,,,,,2,363.000000,49.839668,8.113138,Mare Nero,,"Mo off; Tu,Th,Fr 11:30-14:30,17:30-22:30; We,Sa,Su 17:30-22:30",,55286,,osm_node_2171575063,,Obere Schulstraße,,1433782927.000000,http://mare-nero.de/
food,Manhattan,US,1395399369.000000,,,,,702,375.000000,39.186027,-96.572849,Bi Bim Bap Korean-Japanese Sushi Restaurant,,,785-537-2888,66502,,osm_node_2209431091,Kansas,North 11th Street,,1433782933.000000,
nightlife,Sao Paulo,BR,1362078778.000000,,,,,1344,365.000000,-23.556506,-46.692243,Bar e Bicicletaria Las Magrelas,,Tu-Su 10:00-22:00,(11) 3938-7366,05417-002,,osm_node_2178760338,,Rua Mourato Coelho,,1433782928.000000,http://www.sptrans.com.br
default,Cuyahoga Falls,US,1390642337.000000,,,,,1747,343.000000,41.130423,-81.508069,Underhill's Games,,,330 923 3845,44223,,osm_node_2105027356,Ohio,State Road,,1433782919.000000,http://www.underhillsgames.com/
lodging,,BR,1362409232.000000,,,,,291,367.000000,-23.786037,-45.561639,Kyrios Pousada,,,,,,osm_node_2185635271,,Rua Colombo,,1433782930.000000,http://kyriospousada.com.br
food,St. Petersburg,US,1418693474.000000,,,pages/Brooklyn-South/450217021791221,,1437,373.000000,27.771283,-82.653952,Brooklyn South,,,(727) 914-4967,33705,,osm_node_2206971358,Florida,Central Avenue,,1435667605.000000,http://brooklynsouthcheese.com
default,Zielonka,PL,1378982954.000000,,,,,10,369.000000,52.308440,21.152930,MusicON,,,,05-220,,osm_node_2186657844,,Mikołaja Kopernika,,1433782931.000000,http://musicon.eu/
lodging,Avola,IT,1385686096.000000,,,,,1,371.000000,36.920016,15.157466,Apartment Eucalyptus,,,,96012,,osm_node_2192977646,,Via Pietro Metastasio,,1433782932.000000,http://www.hiresicily.com/
cafe,Київ,UA,1399448731.000000,,,,,49а,372.000000,50.447473,30.515869,Циферблат,,,+38 063 745 4434,01001,,osm_node_2194020257,,Володимирська вулиця,,1433782932.000000,http://clockface.kiev.ua
food,Brno,CZ,1426278006.000000,,,,,1,376.000000,49.192797,16.609688,SUBWAY Zelny trh,,,,60200,,osm_node_2213112183,,Zelný trh,,1433782933.000000,
default,,GB,1365897674.000000,,,,,447-453,377.000000,51.532114,-0.060822,London Hackspace,,,,E2 9DY,,osm_node_2218654057,,Hackney Road,,1433782934.000000,http://london.hackspace.org.uk/
default,Milano,IT,1403865667.000000,,,,,4,378.000000,45.465332,9.184426,Il Giornale,,,,,,osm_node_2219741057,,Via Gaetano Negri,,1433782934.000000,http://ilgiornale.it/
food,South Melbourne,AU,1410131953.000000,,,,,111,360.000000,-37.830490,144.956894,The South Melbourne Trader,,,+61 3 96963938,3205,,osm_node_2166427051,Victoria,Cecil Street,,1433782926.000000,http://www.tsmt.com.au/
default,Belo Horizonte,BR,1481716520.000000,Lan gamer,,Lanhousegamer/,,,8976.000000,-19.861266,-43.957425,Lan Gamer,Lan Gamer,,,31270-700,,,,Rua João Fernandes,,1481716958.000000,
default,Chenab Nagar,PK,1483131143.000000,,,,,,9067.000000,31.815730,72.905960,KAMRAN CHATTHA,KAMRAN CHATTHA,,,35460,,,,Ahmed Nagar-Sial Mor-Phalia Road,,1483131143.000000,
default,Manchester,US,1382151599.000000,,,,,816,390.000000,42.989939,-71.463246,"Lamassu, Inc.",,,,03101,,osm_node_2251651007,New Hampshire,Elm Street,,1433782939.000000,https://lamassu.is
nightlife,Hannover,DE,1422015840.000000,,,,,2,381.000000,52.368198,9.720547,LUX,,,,30449,,osm_node_2235436113,,Schwarzer Bär,,1433782935.000000,
food,Tvarožná,CZ,1387200321.000000,,,,,24,382.000000,49.183901,16.760988,SUBWAY Rohlenka,,,,66405,,osm_node_2240268554,,Rohlenka,,1433782936.000000,
default,Beograd,RS,1406959880.000000,,,,,105,383.000000,44.799242,20.389851,Ineo,,,+381 63326075,11070,,osm_node_2240426127,,Гандијева,,1433782936.000000,http://www.ineo.rs/
default,,IS,1398989106.000000,,,,,,384.000000,64.146661,-21.954324,Hringbraut,,,,,,osm_node_2241977823,,,,1433782936.000000,
default,,IS,1398989106.000000,,,,,,385.000000,64.147712,-21.951361,Hávallagata,,,,,,osm_node_2241977831,,,,1433782937.000000,
nightlife,,IL,1400150559.000000,,,,,,387.000000,32.071434,34.780311,פיקוק,,,,,,osm_node_2249328556,,,,1433782938.000000,
shopping,,IL,1404634568.000000,,,,,,388.000000,32.071427,34.780247,דודי בן ישי - Dudi Ben Yishay,,,054-4774731,,,osm_node_2249328557,,,,1433782938.000000,
food,Saint Petersburg,US,1416844255.000000,,,,,,394.000000,27.771341,-82.650522,Ricky P's,,,,,,osm_node_2266090423,Florida,Central Avenue,,1433782940.000000,
lodging,Buenos Aires,AR,1417016136.000000,,,,,974,391.000000,-34.615311,-58.379897,Hotel Viejo Telmo,,,,,,osm_node_2262235452,,México,,1433782939.000000,
lodging,Ciudad Autónoma de Buenos Aires,AR,1417446920.000000,,,,,868,392.000000,-34.593089,-58.379515,Hotel Argenta Tower,,,011 4325-4100,,,osm_node_2262235566,,Juncal,,1433782940.000000,http://www.argenta-tower.com.ar/
lodging,Buenos Aires,AR,1417646649.000000,,,,,277,393.000000,-34.606136,-58.395126,Hotel Boutique Le Vitral Baires,,,+54 11 4953 6800,,,osm_node_2262235832,,Ayacucho,,1433782940.000000,http://www.hotelvitral.com/
nightlife,,US,1365972694.000000,,,,,,398.000000,40.752477,-73.984652,EVR NYC,,,,10018,,osm_node_2267540842,New York,"54th W 39th St New York, NY",,1433782942.000000,http://evrnyc.com/
default,,MX,1365905823.000000,,,,,135a,395.000000,24.121471,-110.302660,Qrubit,,,,23054,,osm_node_2266527082,,Damiana,,1433782941.000000,http://qrubit.com
default,Stendal,DE,1367168403.000000,,edw@rdturner.co.uk,,,23,396.000000,52.611483,11.869828,Edds Englisch,,,+49 15202 021764,39576,,osm_node_2266611466,,Am Uchtedamm,,1433782941.000000,http://www.rdturner.co.uk
food,,IL,1365927560.000000,,info@barkayma.co.il,,,22,397.000000,32.059109,34.771097,בר-קיימא,,"Mo-Su 00:00-01:00,17:00-24:00; Fr,Sa 00:00-01:00,12:00-24:00",+97239493322,,,osm_node_2266659115,,המשביר,,1433782941.000000,http://barkayma.co.il/
default,,US,1366040095.000000,,,,,,400.000000,36.125884,-115.232718,Vegas Budget Dental,,,,,,osm_node_2268363960,Nevada,,,1433782943.000000,http://vegasbudgetdental.com
shopping,,US,1366214109.000000,,,,,,405.000000,38.969911,-94.666972,Overland Park Jeep Dodge Ram Chrysler,,,,,,osm_node_2270834367,Kansas,Metcalf Avenue,,1433782944.000000,http://www.opjdc.com/
food,,GR,1366041933.000000,,,,,32,401.000000,38.303274,20.601247,Carena Bar - Restaurant,,,+30-2674-061361,,,osm_node_2268395392,,Αναστασίου Βούη,,1433782943.000000,http://www.facebook.com/pages/Carena-Bar-Restaurant/205328212851464
attraction,,AR,1366126955.000000,,,,,159,403.000000,-34.469528,-58.519840,CESYT,,,,,,osm_node_2269643004,,Don Bosco,,1433782944.000000,http://www.cesyt.edu.ar
lodging,Toronto,CA,1366303792.000000,,,,,785,407.000000,43.651902,-79.407454,Urban Living Suites,,,,,,osm_node_2271819307,Ontario,Dundas Street West,,1433782945.000000,http://www.urbanlivingsuites.com
default,,US,1366300019.000000,,,,,,406.000000,38.855893,-104.713285,Total Roofing,,,,,,osm_node_2271763793,Colorado,,,1433782945.000000,http://www.totalroofingco.com/
default,,US,1366438893.000000,,,,,,408.000000,34.164328,-118.374018,Model Printing internet cafe,,,,,,osm_node_2273352385,California,,,1433782945.000000,http://www.modelprinting.com/
default,Sunnyvale,US,1386553782.000000,,,,,380,380.000000,37.378032,-122.032837,Mac's Coins & Collectables,,,,94086,,osm_node_2232337788,California,Altair Way,,1433782935.000000,http://macscoinshop.com
food,Cleveland Heights,US,1397050219.000000,,,,,2167,409.000000,41.500815,-81.565252,Parnell's Pub,,,,,,osm_node_2274068747,Ohio,Lee Road,,1433782946.000000,https://www.facebook.com/pages/Parnells-Pub/66070227632
default,Wabash,US,1366642103.000000,,,,,231,411.000000,40.795480,-85.824176,INGUARD,,,,46992,,osm_node_2276283625,Indiana,West Canal Street,,1433782947.000000,http://www.inguard.com/
default,,CL,1380210672.000000,,,,,,697.000000,-33.520314,-70.545057,Temascal,,,,,,osm_node_2472289056,,,,1433783058.000000,http://temascal.cl/
food,Ciudad autónoma de Buenos Aires,AR,1366576092.000000,,,,,4860,410.000000,-34.542938,-58.482746,AntiDomingo - Restaurante -  Espacio de Arte,,,+54 11 4541 5214,1429,,osm_node_2275848380,,Pinto,,1433782946.000000,http://www.facebook.com/antidomingo
grocery,Minneapolis,US,1401224144.000000,,,,,4135,412.000000,44.927722,-93.223830,Elevated Beer Wine & Spirits,,Mo-Sa 10:00-22:00,,55406,,osm_node_2276471604,Minnesota,Hiawatha Avenue,,1433782948.000000,http://elevatedbws.com
default,,US,1366643318.000000,,,,,,413.000000,39.796148,-86.024140,Caring Dentists,,,,,,osm_node_2277076115,Indiana,,,1433782948.000000,http://www.caringdentists.org/
lodging,Monterey,US,1367185598.000000,,stay@arbogastinn.com,,,364,415.000000,38.414797,-79.584889,Arbogast Inn,,,+1-540-468-3278,24465,,osm_node_2277996264,Virginia,West Main Street,,1433782950.000000,http://www.arbogastinn.com
default,,IL,1366652041.000000,,,,,5,414.000000,32.785183,34.986830,חבר על ארבע,,,+97248340905,,,osm_node_2277301277,,"פיק""א",,1433782949.000000,
sports,,US,1366822264.000000,,,,,9100,418.000000,38.962512,-94.891700,Peeper Ranch,,,,,,osm_node_2279735871,Kansas,Cedar Niles Road,,1433782952.000000,http://peeperranch.com/
default,Kehl,DE,1414522366.000000,,,,,13,417.000000,48.576853,7.813547,BitcoinSolution UG,,,,77694,,osm_node_2279679789,,Königsberger Straße,,1433782951.000000,https://bitcoinsolution.eu
shopping,Vallejo,US,1367179666.000000,,,,,11,419.000000,38.109806,-122.262949,Cyber Computers,,Mo-Fr 10:00-18:00; Sa 10:00-14:00,+1 707 6457009,94590,,osm_node_2283678855,California,Tennessee Street,,1433782953.000000,
shopping,Albuquerque,US,1367164525.000000,,,,,P.O. 27648,420.000000,35.093654,-106.643203,ABQBitcoins,,,505-465-9454,87102,,osm_node_2284444039,New Mexico,,,1433782953.000000,http://www.abqbitcoins.com/
default,,US,1367259280.000000,,,,,917,422.000000,29.763316,-95.360252,Jay Cohen Attorney,,,,,,osm_node_2285949242,Texas,,,1433782954.000000,http://www.cohendwilawyer.com/
default,Paris,FR,1367166038.000000,,,,,,421.000000,48.850851,2.369399,Ecogex,,,,,,osm_node_2284488443,,,,1433782954.000000,http://www.ecogex.com/logos/
food,,FR,1387972036.000000,,,,,43,423.000000,48.828121,2.350064,Restaurant Le 43,,"Tu-Su 12:00-14:30,19:00-22:30",+33 1 53 80 35 24,,,osm_node_2286779111,,Rue des Cinq Diamants,,1433782955.000000,http://le43.com/
default,North York,CA,1366054227.000000,,,,,962,402.000000,43.729840,-79.471499,Ark Army Surplus,,,,,,osm_node_2268586614,Ontario,Wilson Avenue,,1433782943.000000,http://www.arkarmysurplus.com/
nightlife,,JE,1398955898.000000,,,,,,379.000000,49.182385,-2.101886,The Forum,,,,,,osm_node_2222829695,,,,1433782935.000000,
default,Augsburg,DE,1375869241.000000,,,,,1,425.000000,48.357736,10.886781,OpenLab,,,,86159,,osm_node_2290200189,,Elisenstraße,,1433782956.000000,http://openlab-augsburg.de/
default,Philadelphia,US,1387380689.000000,,,,,915,431.000000,39.962024,-75.153515,Hive76,,,,19123,,osm_node_2294946858,penna,Spring Garden Street,,1433782958.000000,http://www.hive76.org/
lodging,,IL,1367684440.000000,,,,,,427.000000,32.747312,35.167193,Galilee Bedouin Camplodge,,,+972 526941188;+972 526941141,,,osm_node_2291522119,,,,1433782957.000000,http://www.shevet-ahim.co.il
shopping,,DK,1367852894.000000,,,,,,428.000000,55.691931,12.545196,Ruben og Bobby,,,,,,osm_node_2293693706,,,,1433782957.000000,http://rubenogbobby.dk/
default,Kitchener,CA,1395248181.000000,,,,,A50,437.000000,43.449725,-80.491023,Fairtax Business Services,,,519-725-9544,N2G 1X4,,osm_node_2301656813,Ontario,Ontario Street South,,1433782961.000000,http://fairtaxcanada.com/
shopping,Evanston,US,1390153987.000000,,,,,1424,432.000000,42.043954,-87.693369,Bucephalus Bikes,,,(847) 864-0924,60201,,osm_node_2295219193,Illinois,Lake Street,,1433782959.000000,http://bucephalusbikes.com/
default,"Land O Lakes, FL",US,1373977128.000000,,,,,21042,435.000000,28.254520,-82.467515,"Accelerated Global - Website Design, SEO, Social Media, Internet Marketing",,,239 898-2888,34637,,osm_node_2297074265,Florida,Lirio Dr,,1433782960.000000,http://aglobal.biz/
nightlife,Budapest,HU,1416770680.000000,,,,,1-3,433.000000,47.498109,19.055547,Anker Klub,,9AM - 2AM,+36 70 621 0741,1062,,osm_node_2295858666,,Anker köz,,1433782960.000000,http://www.ankerklub.hu
shopping,San Francisco,US,1368481112.000000,,,,,1,438.000000,37.794901,-122.392874,Buyer's Best Friend Wholesale & Market,,,,94111,,osm_node_2303037496,California,Ferry Plaza,,1433782962.000000,
shopping,San Francisco,US,1368481248.000000,,,,,450,439.000000,37.799094,-122.408214,Mercato,,,,94133,,osm_node_2303038480,California,Columbus Avenue,,1433782962.000000,
lodging,,MX,1373113734.000000,,,,,,436.000000,17.062226,-96.719427,El Diablo y la Sandía,,,,,,osm_node_2300869884,,,,1433782961.000000,http://eldiabloylasandia.com/
atm,Ottawa,CA,1400434246.000000,,,,,112,444.000000,45.423659,-75.681283,Bitcoin ATM @ Father and Sons,,,,K1N 6S1,,osm_node_2319985578,Ontario,Osgoode Street,,1433782964.000000,
default,"Freehold, NJ",US,1369783344.000000,,,,,6,448.000000,40.238681,-74.254887,Bear & Birch Russian Sauna,,,,07728,,osm_node_2323782832,New Jersey,Paragon Way,,1433782966.000000,http://www.bearandbirch.com/
food,,US,1395349473.000000,,,,,1847,453.000000,39.125714,-94.826600,Stix,,,(913) 299-3788,,,osm_node_2330024122,Kansas,North Village West Parkway,,1433782968.000000,http://stixkc.com/
grocery,Getafe,ES,1381426513.000000,,,,,42,440.000000,40.316491,-3.720957,Mundo Nipón,,Mo-Su 09:00-12:00,665139756,28903,,osm_node_2303900531,,Avenida de las Ciudades,,1433782962.000000,http://www.mundonipon.com
food,Arnhem,NL,1401212651.000000,,,,,10,441.000000,51.983308,5.901519,Karakter,,,,6811KG,,osm_node_2304153232,,Stationsplein,,1433782963.000000,http://www.restaurant-karakter.nl/
default,,NL,1368726899.000000,,,,,45,442.000000,52.366962,4.937184,ZB45 makerspace,,,,1019AA,,osm_node_2306660345,,Zeeburgerpad,,1433782963.000000,http://www.zb45.nl
lodging,Cagliari,IT,1418408672.000000,,info@sardiniadomus.it,,+39 070 6401360,26,443.000000,39.215570,9.111493,Affittacamere B&B Sardinia Domus,,,+39 070659783,09124,,osm_node_2317627942,,Largo Carlo Felice,,1433782964.000000,http://www.sardiniadomus.it/
default,Bratislava,SK,1369510312.000000,,,,,2687/143,445.000000,48.188417,17.133305,3D tlač - MarSal Tech,,,,83154,,osm_node_2320007149,,Račianska,,1433782965.000000,http://www.3dtlac.com
lodging,Berlin,DE,1374079032.000000,,,,,89,446.000000,52.494754,13.419322,Lekkerurlaub,,,+49 30 37306434,10967,,osm_node_2320624912,,Graefestraße,,1433782965.000000,http://lekkerurlaub.de/
shopping,,US,1367614340.000000,,,,,"1904, Suite B",426.000000,30.282228,-97.742290,Brave New Books,,,,78705,,osm_node_2290824497,Texas,Guadalupe St.,,1433782956.000000,http://bravenewbookstore.com/
food,,US,1397296688.000000,,,,,207,456.000000,30.264266,-97.741411,Mai Thai,,,(512)482-8244,,,osm_node_2334038870,Texas,San Jacinto Boulevard,,1433782969.000000,http://maithaionline.com/
default,Pinelands,ZA,1384864393.000000,,,,,4,449.000000,-33.930941,18.506871,Fire & Ice - Fire dancers Cape Town,,,0823521191,7405,,osm_node_2324222417,,Victory Avenue,,1433782967.000000,http://www.fire-ice.co.za/
default,Coimbra,PT,1369853427.000000,,contacto@bitcoin-portugal.com,,,,450.000000,40.195348,-8.420859,Carregador Telemóveis Bitcoin,,,,,,osm_node_2324608137,,,,1433782967.000000,http://carregador.bitcoin-portugal.com
lodging,,GB,1369858527.000000,,ba1020@homie.homelinux.net,,,,451.000000,51.445307,-0.047515,Schinkler B&B,,,,,,osm_node_2324663049,,Garthorne Road,,1433782967.000000,
lodging,Salisbury,GB,1397823876.000000,,,,,Hillside,452.000000,51.033841,-1.793312,Hillside B&B,,,+441722329746,SP5 4JE,,osm_node_2328062256,,Whitesbury Road,,1433782968.000000,http://www.hillsidebandb.co.uk/hillside/
default,Seattle,US,1374341558.000000,,,,,206,465.000000,47.554283,-122.331924,Accountable Moving & Storage,,,,98108,,osm_node_2349883297,Washington,South Brandon Street,,1433782973.000000,http://www.accountablemoving.com
food,,NZ,1370258723.000000,,,,,,454.000000,-46.238879,169.738458,Nom Noms,,,,,,osm_node_2330482357,,John Street,,1433782969.000000,
default,,RO,1370347455.000000,,,,,118,455.000000,44.197715,28.627608,"Massage, Reiki, Reflexotherapy",,,,,,osm_node_2331706991,,Strada Bogdan Petriceicu Hașdeu,,1433782969.000000,http://terapiicomplementareconstanta.ro/
default,Milano,IT,1406220475.000000,,,,,38,457.000000,45.462125,9.173412,BLB Studio Legale,,,,20123,,osm_node_2334605850,,Via Giosuè Carducci,,1433782970.000000,
shopping,תל אביב,IL,1373290756.000000,,,,,4,458.000000,32.073356,34.782028,Bit2c,,,,,,osm_node_2335096854,,אליעזר קפלן,,1433782970.000000,http://bit2c.co.il/
shopping,,CO,1370838045.000000,,,,,Avenida 0 Calle 0,459.000000,7.897867,-72.500089,Paisajismo Creativo,,,,,,osm_node_2338839349,,,,1433782971.000000,http://paisajismocreativo.com.co/
cafe,,IT,1379273612.000000,,,,,5,461.000000,45.661664,9.503409,Wall Street Café,,,+39 035 4933496,,,osm_node_2342088989,,Viale Europa,,1433782972.000000,
default,,FI,1371071814.000000,,,,,,462.000000,60.247429,24.860170,Meidänklinikka,,,,,,osm_node_2342571949,,,,1433782972.000000,http://meidanklinikka.fi/
default,,GB,1392136410.000000,,,,,195,463.000000,51.382872,-0.107516,Zaar Properties,,,+44 20 8698 5555,CR0 2TE,,osm_node_2344809333,,London Road,,1433782972.000000,http://www.zaarproperties.com/
default,Dobrova,SI,1371413538.000000,,info@bitcoinpeople.net,,,5V,464.000000,46.032428,14.428794,BitcoinPeople.net,,,,SI-1356,,osm_node_2348339991,,Podsmreka,,1433782973.000000,http://bitcoinpeople.net
default,Toronto,CA,1368131669.000000,,,,,3299,430.000000,43.596428,-79.524163,Coworking Space Toronto,,,,,,osm_node_2294782937,Ontario,Lake Shore Boulevard West,,1433782958.000000,http://coworkingspace.ca
default,Wien,AT,1385497198.000000,,,,,6,424.000000,48.224923,16.369008,spielend - programmieren,,,+43 660 52 65 377,1020,,osm_node_2288925056,,Brigittenauer Lände,,1433782956.000000,http://www.spielend-programmieren.at/
attraction,Bhawana,PK,1483131158.000000,,,,,,9068.000000,31.818064,72.794037,KAMRAN CHATTHA,KAMRAN CHATTHA,,,,,,,Lalian - Jhang Road,,1483131158.000000,
default,Chenab Nagar,PK,1483131182.000000,,,,,SSSS,9069.000000,31.685523,72.909393,KAMRAN CHATTHA,KAMRAN CHATTHA,,,,,,,Chiniot Jhang Road,,1483131182.000000,
cafe,,US,1415826389.000000,,,,,937,472.000000,27.771325,-82.647761,Everything Dolce Cafe`,,,,33705,,osm_node_2356274533,Florida,Central Ave,,1433782975.000000,
shopping,,ES,1415273114.000000,,,,,,469.000000,40.422635,-3.688105,Carolina Herrera,,,,,,osm_node_2352834709,,,,1433782974.000000,
default,Zaragoza,ES,1385709246.000000,,,,,6,470.000000,41.645174,-0.918654,Nestor Games,,,,50012,,osm_node_2353633023,,Calle del Mar de las Antillas,,1433782975.000000,http://nestorgames.com/
default,Zaragoza,ES,1402386618.000000,,,,,43,471.000000,41.628862,-0.888857,Traductor inglés/francés a español,,,0034 876168872,50007,,osm_node_2353801079,,Calle Castillo de Loarre,,1433782975.000000,
default,,US,1372266792.000000,,,,,450,478.000000,37.789524,-122.407770,My Doctor Medical Group,,,,,,osm_node_2362017423,California,Sutter Street,,1433782977.000000,http://mydoctorsf.com/
default,"Chaoyang District, Beijing",CN,1372085138.000000,,info@koryogroup.com,,,27,473.000000,39.933002,116.445679,Koryo Tours,,2013,+86 1064167544,100027,,osm_node_2358832731,,Beisanlitun Nan (East Courtyard),,1433782976.000000,http://www.koryogroup.com/
default,Hovorany,CZ,1389785378.000000,,,,,488,474.000000,48.955381,17.002886,První hovoranské - domácí pivo,,,774 792 657,69612,,osm_node_2359161620,,,,1433782976.000000,http://prvnihovoranske.com/
shopping,,SK,1386182145.000000,,,,,,475.000000,48.718386,21.231746,Svadobný salón - La Fiaba,,"Mo-Fr 10:00-12:00,13:00-18:00",+421 908 845 143,,,osm_node_2359292148,,,,1433782976.000000,http://www.lafiaba.sk
default,Firenze,IT,1400845659.000000,,,,,154,476.000000,43.766762,11.217524,Tuxel,,Mo-Fr 09:00-18:00,+39 055 7330055,50143,,osm_node_2361696668,,Via dell'Olivuzzo,,1433782977.000000,http://tuxel.com
default,Firenze,IT,1393886777.000000,,,,,51 R,477.000000,43.776772,11.251342,Smokies,,,,,,osm_node_2361886958,,Via Nazionale,,1433782977.000000,
default,,US,1372464468.000000,,,,,436,480.000000,34.068573,-118.405418,Elite body sculpture,,,,,,osm_node_2365163231,California,North Bedford Drive,,1433782978.000000,http://www.elitebodysculpture.com/
default,Boutte,US,1373392340.000000,,,,,13352,492.000000,29.901012,-90.386689,"Monti Notary Services, LLC",,,,70039,,osm_node_2379310540,Louisiana,Highway 90,,1433782982.000000,http://garrettmonti.com/
default,,GB,1372835827.000000,,,,,,481.000000,51.080569,1.170011,LotWin Software,,,,,,osm_node_2371547643,,,,1433782978.000000,http://www.lotwin.com
lodging,,MX,1373122041.000000,,,,,171,483.000000,20.678909,-103.363965,El Hostelito,,,,,,osm_node_2376148297,,Ignacio Ramírez,,1433782979.000000,http://blog.woralelandia.com/mi-casa-es-tu-casa/
cafe,,CH,1373126909.000000,,,,,3,484.000000,46.217937,6.142649,Café Moka,,,,,,osm_node_2376227611,,la Voie-Creuse,,1433782979.000000,http://www.cafemoka.ch/
food,Roma,IT,1373129718.000000,,,,,1,485.000000,41.923565,12.441570,Beer Time,,,+39 331 4897537,00136,,osm_node_2376266861,,Via Cesio Basso,,1433782980.000000,
default,,SK,1373132088.000000,,,,,17,486.000000,48.920956,21.912691,YogiWay,,,,,,osm_node_2376305411,,Partizánska,,1433782980.000000,http://yogiway.eu/
shopping,,ES,1415273091.000000,,,,,,487.000000,40.424066,-3.687854,Loewe,,,,,,osm_node_2377017681,,,,1433782980.000000,
shopping,,ES,1415273057.000000,,,,,,488.000000,40.424370,-3.687799,Prada,,,,,,osm_node_2377017686,,,,1433782981.000000,
lodging,Le vibal,FR,1389090528.000000,,,,,,489.000000,44.335216,2.715286,Gite de la Fontaine,,,,12290,,osm_node_2377898357,,Barry,,1433782981.000000,http://www.gite-aveyron-barry.fr/
lodging,,IT,1373287733.000000,,,,,340/C,490.000000,40.854598,14.267792,BB del Corso,,,,,,osm_node_2377927022,,Corso Giuseppe Garibaldi,,1433782981.000000,http://bnbnapoli.it/
lodging,,BE,1373295570.000000,,,,,4;6,491.000000,51.029619,4.476386,Bed and Breakfast Luna Luna,,,,,,osm_node_2378048654,,Jef Denijnplein,,1433782982.000000,http://www.lunaluna.be/
default,Lake Park,US,1373391367.000000,,,,,1300,493.000000,26.803033,-80.076921,Audio Props,,,(561) 328-6429,33403,,osm_node_2379324455,Florida,Old Dixie Highway,,1433782982.000000,http://audioprops.com/
default,New York,US,1373458545.000000,,,,,363,496.000000,40.748533,-73.992255,Nesenoff & Miltenberg LLP,,,,,,osm_node_2380045819,New York,7th Avenue,,1433782983.000000,http://nmllplaw.com/
default,,IT,1373416563.000000,,,,,935,495.000000,41.944499,12.559879,Ottonodi S.r.l.,,,,,,osm_node_2379659271,,Via Nomentana,,1433782983.000000,http://ottonodi.com/
shopping,,US,1373559316.000000,,,,,,501.000000,28.331800,-82.685264,Heidi Jo's boutique,,,,,,osm_node_2381445824,Florida,,,1433782985.000000,http://www.heidijosboutique.com/
cafe,Singapore,SG,1373472535.000000,,,,,17,497.000000,1.302891,103.858189,Artistry cafe,,,6298 2420,199149,,osm_node_2380324920,,Jalan Pinang,,1433782984.000000,
default,Roma,IT,1373478053.000000,,,,,,498.000000,41.922970,12.438401,De Castro Herrero,,,,00136,,osm_node_2380392195,,Via Pietro Quintini,,1433782984.000000,http://lezionidispagnolo.es
lodging,,FR,1373480347.000000,,florent.martin.pro@gmail.com,,,,499.000000,43.726273,5.556953,Guest house,,,,,,osm_node_2380423580,,,,1433782985.000000,
food,,US,1397300183.000000,,,,,3637,468.000000,30.354621,-97.756375,Quizno's Far West,,,(512) 338-9414,,,osm_node_2352597266,Texas,Far West Boulevard,,1433782974.000000,http://quiznosfarwest.com/
food,Salt Lake City,US,1373560860.000000,,,,,565,502.000000,40.725519,-111.874651,Firehouse BBQ,,,801-268-3374,84106,,osm_node_2381475166,Utah,2100 South,,1433782986.000000,http://firehousebbqfood.com/
food,,GB,1417946832.000000,,,,,7,503.000000,52.954558,-1.152560,The Barrel Drop,,12pm - 10pm Monday to Sunday,,NG1 6JD,,osm_node_2383902858,,Hurts Yard,,1433782986.000000,https://www.facebook.com/pages/The-Barrel-Drop/758853557509255
default,Pinelands,ZA,1386577370.000000,,,,,,504.000000,-33.927106,18.517875,SouthAfrica.to,,,+27-21-531-7453,7405,,osm_node_2384773076,,Elizabeth Avenue,,1433782987.000000,http://www.southafrica.to/
default,,US,1378894988.000000,,,,,100,645.000000,33.720293,-117.785493,Triple Crown Transport,,,+1 714 4010226,,,osm_node_2453939062,California,Wycliffe,,1433783040.000000,
shopping,,AR,1374844094.000000,,,,,338,506.000000,-34.705193,-58.396336,CD KEY ARG,,,,1824,,osm_node_2387030198,,Gobernador Irigoyen,,1433782987.000000,https://www.facebook.com/CdKeyArg
default,,IT,1374066792.000000,,,,,1,508.000000,37.538463,15.072125,SV Commerce S.R.L.,,Mo-Su 09:00-20:00,,95125,,osm_node_2387462667,,Via Vincenzo Monti,,1433782988.000000,http://www.svcommerce.it/
default,,ES,1374844095.000000,,,,,,509.000000,39.465627,-0.354113,klikaid.com,,,+34 96 115 23 99,,,osm_node_2389036610,,,,1433782989.000000,http://klikaid.com
default,,FR,1385487707.000000,,,,,,510.000000,48.856219,2.366115,Mark Hachem,,,+33 1 42 76 94 93,,,osm_node_2389199209,,,,1433782989.000000,http://markhachem.com/
default,,CA,1373540517.000000,,,,,2306,500.000000,49.870601,-119.543290,Rollingdale Winery,,,,,,osm_node_2381153680,British Columbia,Hayman Road,,1433782985.000000,http://www.rollingdale.ca
default,Milano,IT,1397336802.000000,,info@xlabstudio.com,,,4,466.000000,45.465631,9.184378,X-Laboratories,,,,20123,,osm_node_2349924264,,Via Gaetano Negri,,1433782973.000000,http://xlabstudio.com/
shopping,Пермь,RU,1471287628.000000,,korolenko2008@mail.ru,,,80,8448.000000,57.994703,56.247259,Магазин Пряжи на Куйбышева 80,,,+7(951)957-68-33,614016,,,,улица Куйбышева,,1471895393.000000,http://www.yarn59.ru
shopping,New Orleans,US,1375139572.000000,,,,,322,523.000000,29.955248,-90.067110,David's Antiques,,9 - 5,504-908-0011,70130,,osm_node_2400996356,Louisiana,Royal Street,,1433782994.000000,http://davidsnola.com
default,Nuth,NL,1374523074.000000,,,,,1,514.000000,50.921459,5.882257,Souren Meubels,,,,6361 GX,,osm_node_2393188815,,Kamp,,1433782991.000000,http://sourenmeubels.nl/
default,,IT,1374747229.000000,,,,,136,516.000000,45.549748,11.541060,Studio Legale Nicolin & Partners,,,+39 0444 546425,,,osm_node_2396070795,,Corso Antonio Fogazzaro,,1433782992.000000,http://studionicolin.it/
food,Bangkok,TH,1398299209.000000,,,,,,518.000000,13.725479,100.533898,Eat Me Restaurant,,Mo-Su 15:00-01:00,+66 812936326,,,osm_node_2398070810,,Soi Phipat 2,,1433782992.000000,http://eatmerestaurant.com/
default,Berlin,DE,1374244490.000000,,,,,79/79,512.000000,52.543184,13.413681,Bitbond.net,,,,10437,,osm_node_2389643553,,Pappelallee,,1433782990.000000,https://bitbond.net/
lodging,,IE,1374932159.000000,,,,,,519.000000,53.078647,-7.881832,The Ring Farmhouse,,,+353 57 9120976,,,osm_node_2398324330,,,,1433782993.000000,http://irishfarmhouseholiday.com/
default,,ES,1374937249.000000,,,,,17,520.000000,28.469693,-16.286500,Deportes Pineda,,,,,,osm_node_2398384490,,Calle Narciso Vera,,1433782993.000000,http://deportespineda.com/
default,,CZ,1406105017.000000,,,,,217,521.000000,49.272533,14.712751,VirtuálníMěny.com,,,,39201,,osm_node_2398847646,,,,1433782994.000000,http://www.virtualnimeny.com
shopping,Sankt Peter-Ording,DE,1388764725.000000,,,,,19,522.000000,54.315666,8.608048,Altes Haus 1912,,,,25826,,osm_node_2399139651,,Im Bad,,1433782994.000000,
shopping,Seattle,US,1376041173.000000,,,,,1425,529.000000,47.609791,-122.336662,Nesbit's Fine Watch Service,,,+1 206 623 1211,98101,,osm_node_2404244847,Washington,4th Avenue,,1433782997.000000,http://nesbitswatchservice.com/
food,Graz,AT,1382882552.000000,,,,,28,524.000000,47.069742,15.451165,Gaumenkino,,Tu-Fr 11:00-19:00,,8010,,osm_node_2401290238,,Gartengasse,,1433782995.000000,http://gaumenkino.at/
food,,JP,1375178410.000000,,,,,,525.000000,35.661979,139.734707,The Pink Cow,,,,,,osm_node_2401315271,,,,1433782995.000000,http://thepinkcow.com
cafe,Edmonton,CA,1375199401.000000,,,,,10404,527.000000,53.518196,-113.498116,Remedy Café Whyte Ave,,,(780) 760-1001,T6E 2A2,,osm_node_2401628839,Alberta,Whyte Ave,,1433782996.000000,http://remedycafe.ca
default,Roberts Creek,CA,1375916287.000000,,,,,1183,542.000000,49.425324,-123.650256,Plasticsmith Inc.,,,604-885-4474,V0N 2W2,,osm_node_2410445957,British Columbia,Roberts Creek,,1433783002.000000,http://plasticsmith.ca
attraction,,GB,1375359842.000000,,,,,25,528.000000,51.523018,-0.087029,Makers Academy,,,,,,osm_node_2403634956,,City Road,,1433782996.000000,http://makersacademy.com/
nightlife,Cleveland,US,1375619023.000000,,,,,1001,540.000000,41.507013,-81.691021,David's Grill & Bar,,,216-696-8840,44114,,osm_node_2406821805,Ohio,Lakeside Ave,,1433783001.000000,http://davidsgrillandbar.com/
food,,GB,1375455731.000000,,,,,,530.000000,51.416119,-3.255310,King William IV,,,,CF63 1LD,,osm_node_2405236828,,Bridge Street,,1433782997.000000,
default,,GB,1375520806.000000,,,,,,531.000000,51.214270,-0.807967,Paul Christie Artists,,,,,,osm_node_2405816379,,,,1433782997.000000,http://paulchristieartists.co.uk/
default,,GB,1375522680.000000,,,,,,532.000000,50.865165,-0.083154,RedBedlam,,,,,,osm_node_2405833158,,,,1433782998.000000,http://missing-ink.com/
default,,GB,1375522909.000000,,,,,,533.000000,50.865000,-0.083014,MetaLair,,,,,,osm_node_2405835931,,,,1433782998.000000,http://metalair.org
default,,GB,1375524691.000000,,,,,,534.000000,51.214282,-0.807832,Ravenscourt Design,,,,,,osm_node_2405854726,,,,1433782999.000000,http://ravenscourt.co.uk/
default,,GB,1375525377.000000,,,,,,535.000000,50.865016,-0.082956,Virtual Doctors Charity,,,,,,osm_node_2405865895,,,,1433782999.000000,http://virtualdoctors.org/
shopping,,GB,1377110647.000000,,,,,,536.000000,51.416255,-3.254922,the idiot village,,,,,,osm_node_2406060134,,,,1433783000.000000,http://thevillageidiotme.ipage.com/
default,Brighton,GB,1375575046.000000,,,,,31,538.000000,50.845208,-0.134036,Bitcoin Stickers,,,,BN1 7JG,,osm_node_2406476272,,Hollingbury Park Avenue,,1433783000.000000,http://bitcoin-stickers.co.uk/
default,Brighton,GB,1375574990.000000,,,,,19A,539.000000,50.817580,-0.115434,Coast Networks,,,+441273808691,BN2 1NB,,osm_node_2406477656,,Chesham Street Brighton,,1433783001.000000,http://coastnetworks.co.uk/
default,Warsaw,PL,1375790274.000000,,,,,5,541.000000,52.175695,21.050976,Tłumacz Przysięgły języka francuskiego,,,+48 22 8428522;+48 505011202,02-763,,osm_node_2408809137,,Marsylska,,1433783002.000000,http://tlumaczenia-francuski.pl/
default,Roberts Creek,CA,1375917353.000000,,vitalsigns@sunshinecoast.ca,,,3172,544.000000,49.435443,-123.645017,Vital Signs and Graphics,,,604-885-4474,V0N 2W1,,osm_node_2410452096,British Columbia,Hansen Road,,1433783003.000000,http://vitalsignsandgraphics.ca/
food,Vancouver,CA,1375918057.000000,,,,,105,545.000000,49.280552,-123.102045,Bestie,,Mo-Sa 11:30-22:00,604 620 1175,,,osm_node_2410457761,British Columbia,East Pender Street,,1433783003.000000,http://bestie.ca
default,Vancouver,CA,1375962482.000000,,Office@nolimitlandscapes.com,,,,548.000000,49.244708,-123.090625,No Limit Landscaping,,,604.559.9882,,,osm_node_2410987244,British Columbia,,,1433783004.000000,http://nolimitlandscapes.com/
default,,ES,1375930492.000000,,,,,,546.000000,41.642446,2.365607,calbasi.net,,,635403104,08440,,osm_node_2410528130,,Avinguda d'Eduard Corbella,,1433783004.000000,http://calbasi.net/
default,,CA,1375962754.000000,,contact@artofmuse.com,,,,549.000000,49.283879,-123.109465,Art of Muse,,,778.896.1580,,,osm_node_2410996959,British Columbia,,,1433783005.000000,http://artofmuse.com/
default,,CA,1375963068.000000,,contact@rocketcases.com,,,,550.000000,49.283687,-123.112128,Rocket Cases,,,888-960-6022,,,osm_node_2411007318,British Columbia,,,1433783005.000000,http://rocketcases.com
default,,US,1377985120.000000,,,,,,597.000000,39.829761,-74.978460,Limousine Service - Ride a class,,,,,,osm_node_2440841250,New Jersey,,,1433783023.000000,http://rideaclass.com/
default,Vancouver,CA,1375963852.000000,,info@freegeekvancouver.org,,,1820,551.000000,49.282882,-123.067583,Free Geek Vancouver,,,604-879-GEEK,,,osm_node_2411018297,British Columbia,Pandora Street,,1433783005.000000,http://freegeekvancouver.org/
default,,CA,1375964395.000000,,info@key3d.com,,,,552.000000,49.281274,-123.107989,Key 3D,,,778 786 1405,,,osm_node_2411028136,British Columbia,,,1433783006.000000,http://key3d.com/
shopping,Sechelt,CA,1375965837.000000,,sechelt@rapidedge.ca,,,5631,553.000000,49.476442,-123.756057,Rapid Edge Technologies,,,604.885.9893,,,osm_node_2411048114,British Columbia,Inlet Avenue,,1433783006.000000,http://rapidedge.ca/
shopping,,US,1374418283.000000,,,,,21524,513.000000,34.168031,-118.599359,Christopher Rütman HairStylist,,,,,,osm_node_2391740297,California,Ventura Boulevard,,1433782991.000000,http://extensions4hair.com
default,,GR,1385200881.000000,,,,,,1088.000000,38.051468,23.811187,Smart NS,,,,,,osm_node_2546564865,,,,1433783198.000000,http://www.smartns.gr/
default,Pelotas,BR,1470765349.000000,"Há mais de 45 anos, o Centro Social Filadélfia hospeda idosos com segurança, conforto e dignidade. ",filadelfia@cesfil.org.br,,,1550,8409.000000,-31.770194,-52.331250,CESFIL - LAR DE IDOSOS,,,+55 53 32255383 ,96090-575,,,,Avenida Juscelino Kubitschek de Oliveira,,1470766439.000000,
default,Chicago,US,1377191629.000000,,,,,2118,565.000000,41.853532,-87.646714,BooshWorks,,,888-642-6674,60608,,osm_node_2425845570,Illinois,South Halsted Street,,1433783011.000000,http://www.booshworks.com/
default,Roberts Creek,CA,1376325580.000000,,,,,1807,559.000000,49.446256,-123.640759,Jaybird Home Improvements,,,604-741-3451,,,osm_node_2416323292,British Columbia,Lockyer Road,,1433783008.000000,
food,,CA,1398341447.000000,,,,,89,580.000000,45.429340,-75.692695,Clock Tower Brew Pub,,,,,,osm_node_2434101405,Ontario,Clarence Street,,1433783017.000000,http://clarence.clocktower.ca/
default,,BG,1376380155.000000,,reservations@holidaydelux.com,,,,560.000000,43.211697,27.927983,HolidayDelux,,,00359897200232,,,osm_node_2417414871,,,,1433783009.000000,http://holidaydelux.com/
shopping,Καλαμάτα,GR,1376468555.000000,,,,,4,561.000000,37.039814,22.112019,laptopstore.gr Kalamata,,,,,,osm_node_2418657377,,Παυσανίου,,1433783009.000000,http://laptopstore.gr/
default,Worthing,GB,1376652710.000000,,,,,53,563.000000,50.826058,-0.366692,Bells and Whistles Bespoke Wedding Stationery,,,,BN14 8EY,,osm_node_2420299259,,Marlowe Road,,1433783010.000000,http://bellsandwhistles.info/
lodging,,GT,1376900576.000000,,,,,,564.000000,15.579775,-89.979103,Zephyr lodge,,,502 51682441,,,osm_node_2423833359,,,,1433783010.000000,http://zephyrlodgelanquin.com/
default,,US,1377198523.000000,,,,,,568.000000,40.299938,-111.646970,La Nay Ferme,,,,,,osm_node_2428454460,Utah,East Lawn Loop,,1433783012.000000,http://lanayferme.com/
default,Oradea,RO,1391603123.000000,,,,,4B,567.000000,47.051675,21.918019,NRGym,,,+0359-236641,410222,,osm_node_2427120184,,Strada Vlădeasa,,1433783011.000000,http://nrgym.ro/
default,,US,1378340782.000000,,,,,,583.000000,43.663369,-111.307524,Luxury Vacation Cabin Rental,,,,,,osm_node_2439718515,Idaho,,,1433783018.000000,http://vrbo.com/73892
shopping,Montréal,CA,1398166222.000000,,,,,77,569.000000,45.537096,-73.620874,Atelier 77,,on appointment,,,,osm_node_2429690872,,Rue Jules-Verne,,1433783012.000000,
cafe,Lausanne,CH,1377424096.000000,,,,,6,570.000000,46.525127,6.636048,Sweet Dreams Cupcake Café,,,021 312 21 12,1005,,osm_node_2430857611,,rue de la barre,,1433783013.000000,http://www.cafesweetdreams.com/
default,Singapore,SG,1377427362.000000,,,,,11c,571.000000,1.286804,103.848488,Squash Passion,,,,049024,,osm_node_2430900970,,Lor Telok,,1433783013.000000,http://squashpassion.com/
default,Daejon,KR,1377430628.000000,,,,,,572.000000,36.322455,127.419486,Bachman Roasting,,,,,,osm_node_2430952684,,,,1433783013.000000,http://bachmanroasting.wordpress.com/
default,,SG,1377431067.000000,,,,,,573.000000,1.318278,103.842987,Surat IT Pte. Ltd.,,,+65-31584765,,,osm_node_2430958024,,,,1433783014.000000,http://sh3lls.net/
default,,SG,1377431427.000000,,,,,,574.000000,1.423434,103.765971,kranjiracing.com,,,,,,osm_node_2430964864,,,,1433783014.000000,http://kranjiracing.com/
default,,SG,1377432034.000000,,,,,,575.000000,1.292496,103.850802,Winn Host,,,,,,osm_node_2430975866,,,,1433783014.000000,http://winnhost.com/
